Initializing..
Start gps..
   try autobaud 4800..
FAIL
   try autobaud 9600..
FAIL
   try autobaud 19200..
FAIL
   try autobaud 38400..
OK
Start seatalk - serial2..
Start nmea Rx - serial3..
Start nmea Tx..
Start wind..
Start button interrupts..
Start timer..
Setup complete..
@C B€?à“cû
$GPRMC,010155.000,A,4115.6411,S,17316.9339,E,0.33,115.24,031112,,*1C
$IIMWV,272.0,R,12.0,N,A*9
$GPRMC,010156.000,A,4115.6412,S,17316.9339,E,0.15,130.65,031112,,*1A
$IIMWV,268.0,R,12.0,N,A*2
$GPRMC,010157.000,A,4115.6412,S,17316.9340,E,0.30,115.80,031112,,*1E
$IIMWV,265.0,R,11.0,N,A*C
$GPRMC,010158.000,A,4115.6412,S,17316.9340,E,0.10,121.46,031112,,*1E
$IIMWV,266.0,R,11.0,N,A*F
$GPGGA,010159.000,4115.6412,S,17316.9341,E,1,06,1.5,4.8,M,18.9,M,,0000*4E
$GPGSA,A,3,31,16,20,30,23,29,,,,,,,2.7,1.5,2.3*3C
$IIMWV,272.0,R,10.0,N,A*B
$GPRMC,010200.000,A,4115.6413,S,17316.9341,E,0.09,136.28,031112,,*16
$IIMWV,273.0,R,10.0,N,A*A
$GPRMC,010201.000,A,4115.6413,S,17316.9341,E,0.25,116.84,031112,,*1D
$IIMWV,268.0,R,9.0,N,A*38
$GPRMC,010202.000,A,4115.6413,S,17316.9342,E,0.39,113.99,031112,,*19
$IIMWV,268.0,R,9.0,N,A*38
$GPRMC,010203.000,A,4115.6413,S,17316.9343,E,0.13,120.46,031112,,*13
$IIMWV,274.0,R,8.0,N,A*34
$GPGGA,010204.000,4115.6414,S,17316.9343,E,1,06,1.5,6.4,M,18.9,M,,0000*4F
$GPGSA,A,3,31,16,20,30,23,29,,,,,,,2.7,1.5,2.3*3C
$IIMWV,278.0,R,8.0,N,A*38
$GPRMC,010205.000,A,4115.6414,S,17316.9343,E,0.11,145.24,031112,,*17
$IIMWV,267.0,R,8.0,N,A*36
$GPRMC,010206.000,A,4115.6414,S,17316.9344,E,0.27,118.30,031112,,*1B
$IIMWV,273.0,R,8.0,N,A*33
$GPRMC,010207.000,A,4115.6414,S,17316.9344,E,0.20,125.46,031112,,*12
$IIMWV,278.0,R,8.0,N,A*38
$GPRMC,010208.000,A,4115.6415,S,17316.9345,E,0.32,118.35,031112,,*14
$IIMWV,275.0,R,7.0,N,A*3A
$GPGGA,010209.000,4115.6415,S,17316.9346,E,1,06,1.5,7.7,M,18.9,M,,0000*44
$GPGSA,A,3,31,16,20,30,23,29,,,,,,,2.7,1.5,2.3*3C
$IIMWV,282.0,R,9.0,N,A*3C
$GPRMC,010210.000,A,4115.6415,S,17316.9346,E,0.09,115.12,031112,,*1E
$IIMWV,263.0,R,10.0,N,A*B
$GPRMC,010211.000,A,4115.6415,S,17316.9346,E,0.03,179.41,031112,,*19
$IIMWV,257.0,R,11.0,N,A*D
$GPRMC,010212.000,A,4115.6415,S,17316.9346,E,0.23,121.10,031112,,*11
$IIMWV,258.0,R,12.0,N,A*1
$GPRMC,010213.000,A,4115.6415,S,17316.9347,E,0.35,118.82,031112,,*17
$IIMWV,259.0,R,13.0,N,A*1
$GPGGA,010214.000,4115.6415,S,17316.9347,E,1,06,1.5,8.6,M,18.9,M,,0000*47
$GPGSA,A,3,31,16,20,30,23,29,,,,,,,2.7,1.5,2.3*3C
$IIMWV,264.0,R,13.0,N,A*F
$GPRMC,010215.000,A,4115.6414,S,17316.9343,E,0.04,12.29,031112,,*2C
$IIMWV,261.0,R,13.0,N,A*A
$GPRMC,010216.000,A,4115.6413,S,17316.9340,E,0.04,348.02,031112,,*1E
$IIMWV,263.0,R,14.0,N,A*F
$GPRMC,010217.000,A,4115.6412,S,17316.9337,E,0.12,325.84,031112,,*1C
$IIMWV,269.0,R,15.0,N,A*4
$GPRMC,010218.000,A,4115.6411,S,17316.9334,E,0.11,64.56,031112,,*29
$IIMWV,268.0,R,15.0,N,A*5
$GPGGA,010219.000,4115.6410,S,17316.9332,E,1,06,1.5,2.3,M,18.9,M,,0000*42
$GPGSA,A,3,31,16,20,30,23,29,,,,,,,2.7,1.5,2.3*3C
$IIMWV,264.0,R,13.0,N,A*F
$GPRMC,010220.000,A,4115.6409,S,17316.9329,E,0.12,29.19,031112,,*26
$IIMWV,260.0,R,13.0,N,A*B
$GPRMC,010221.000,A,4115.6409,S,17316.9330,E,0.16,329.36,031112,,*15
$IIMWV,265.0,R,11.0,N,A*C
$GPRMC,010222.000,A,4115.6410,S,17316.9331,E,0.15,331.33,031112,,*10
$IIMWV,264.0,R,11.0,N,A*D
$GPRMC,010223.000,A,4115.6410,S,17316.9332,E,0.11,335.81,031112,,*1B
$IIMWV,272.0,R,10.0,N,A*B
$GPGGA,010224.000,4115.6410,S,17316.9332,E,1,06,1.5,2.3,M,18.9,M,,0000*4C
$GPGSA,A,3,31,16,20,30,23,29,,,,,,,2.7,1.5,2.3*3C
$IIMWV,257.0,R,10.0,N,A*C
$GPRMC,010225.000,A,4115.6410,S,17316.9333,E,0.05,325.67,031112,,*10
$IIMWV,258.0,R,11.0,N,A*2
$GPRMC,010226.000,A,4115.6411,S,17316.9334,E,0.24,102.58,031112,,*1D
$IIMWV,260.0,R,14.0,N,A*C
$GPRMC,010227.000,A,4115.6411,S,17316.9335,E,0.27,108.12,031112,,*1A
$IIMWV,260.0,R,13.0,N,A*B
$GPRMC,010228.000,A,4115.6412,S,17316.9336,E,0.10,118.78,031112,,*1C
$IIMWV,263.0,R,13.0,N,A*8
$GPGGA,010229.000,4115.6412,S,17316.9337,E,1,06,1.5,4.0,M,18.9,M,,0000*43
$GPGSA,A,3,31,16,20,30,23,29,,,,,,,2.7,1.5,2.3*3C
$IIMWV,271.0,R,13.0,N,A*B
$GPRMC,010230.000,A,4115.6413,S,17316.9338,E,0.33,129.89,031112,,*17
$IIMWV,265.0,R,13.0,N,A*E
$GPRMC,010231.000,A,4115.6414,S,17316.9339,E,0.13,140.72,031112,,*19
$IIMWV,262.0,R,12.0,N,A*8
$GPRMC,010232.000,A,4115.6414,S,17316.9340,E,0.13,101.93,031112,,*1E
$IIMWV,270.0,R,12.0,N,A*B
$GPRMC,010233.000,A,4115.6414,S,17316.9340,E,0.09,44.22,031112,,*2E
$IIMWV,267.0,R,11.0,N,A*E
$GPGGA,010234.000,4115.6414,S,17316.9341,E,1,06,1.5,5.6,M,18.9,M,,0000*4F
$GPGSA,A,3,31,16,20,30,23,29,,,,,,,2.7,1.5,2.3*3C
$IIMWV,269.0,R,12.0,N,A*3
$GPRMC,010235.000,A,4115.6415,S,17316.9341,E,0.12,94.41,031112,,*2A
$IIMWV,259.0,R,11.0,N,A*3
$GPRMC,010236.000,A,4115.6415,S,17316.9342,E,0.19,114.55,031112,,*1D
$IIMWV,256.0,R,10.0,N,A*D
$GPRMC,010237.000,A,4115.6415,S,17316.9342,E,0.10,78.81,031112,,*27
$IIMWV,260.0,R,8.0,N,A*31
$GPRMC,010238.000,A,4115.6415,S,17316.9343,E,0.13,93.29,031112,,*2D
$IIMWV,251.0,R,8.0,N,A*33
$GPGGA,010239.000,4115.6415,S,17316.9343,E,1,06,1.5,7.0,M,18.9,M,,0000*45
$GPGSA,A,3,31,16,20,30,23,29,,,,,,,2.7,1.5,2.3*3C
$IIMWV,260.0,R,8.0,N,A*31
$GPRMC,010240.000,A,4115.6415,S,17316.9344,E,0.19,116.88,031112,,*18
$IIMWV,259.0,R,9.0,N,A*3A
$GPRMC,010241.000,A,4115.6416,S,17316.9344,E,0.10,101.22,031112,,*15
$IIMWV,262.0,R,9.0,N,A*32
$GPRMC,010242.000,A,4115.6416,S,17316.9345,E,0.24,119.30,031112,,*1A
$IIMWV,277.0,R,8.0,N,A*37
$GPRMC,010243.000,A,4115.6416,S,17316.9345,E,0.27,126.34,031112,,*10
$IIMWV,271.0,R,10.0,N,A*8
$GPGGA,010244.000,4115.6417,S,17316.9346,E,1,06,1.5,8.2,M,18.9,M,,0000*45
$GPGSA,A,3,31,16,20,30,23,29,,,,,,,2.7,1.5,2.3*3C
$IIMWV,275.0,R,10.0,N,A*C
$GPRMC,010245.000,A,4115.6417,S,17316.9346,E,0.17,119.45,031112,,*1D
$IIMWV,267.0,R,9.0,N,A*37
$GPRMC,010246.000,A,4115.6417,S,17316.9346,E,0.15,113.09,031112,,*1E
$IIMWV,264.0,R,8.0,N,A*35
$GPRMC,010247.000,A,4115.6417,S,17316.9346,E,0.10,74.55,031112,,*23
$IIMWV,262.0,R,8.0,N,A*33
$GPRMC,010248.000,A,4115.6417,S,17316.9347,E,0.16,107.27,031112,,*1B
$IIMWV,252.0,R,9.0,N,A*31
$GPGGA,010249.000,4115.6417,S,17316.9347,E,1,06,1.5,9.2,M,18.9,M,,0000*48
$GPGSA,A,3,31,16,20,30,23,29,,,,,,,2.7,1.5,2.3*3C
$IIMWV,247.0,R,8.0,N,A*34
$GPRMC,010250.000,A,4115.6417,S,17316.9347,E,0.13,101.75,031112,,*16
$IIMWV,273.0,R,9.0,N,A*32
$GPRMC,010251.000,A,4115.6417,S,17316.9347,E,0.20,117.23,031112,,*13
$IIMWV,269.0,R,9.0,N,A*39
$GPRMC,010252.000,A,4115.6418,S,17316.9348,E,0.14,109.96,031112,,*16
$IIMWV,259.0,R,9.0,N,A*3A
$GPRMC,010253.000,A,4115.6418,S,17316.9348,E,0.12,99.28,031112,,*2C
$IIMWV,262.0,R,9.0,N,A*32
$GPGGA,010254.000,4115.6418,S,17316.9348,E,1,06,1.5,9.9,M,18.9,M,,0000*4F
$GPGSA,A,3,31,16,20,30,23,29,,,,,,,2.7,1.5,2.3*3C
$IIMWV,267.0,R,10.0,N,A*F
$GPRMC,010255.000,A,4115.6418,S,17316.9348,E,0.17,110.14,031112,,*10
$IIMWV,272.0,R,10.0,N,A*B
$GPRMC,010256.000,A,4115.6418,S,17316.9348,E,0.08,74.79,031112,,*25
$IIMWV,270.0,R,10.0,N,A*9
$GPRMC,010257.000,A,4115.6418,S,17316.9347,E,0.06,72.88,031112,,*2D
$IIMWV,274.0,R,10.0,N,A*D
$GPRMC,010258.000,A,4115.6418,S,17316.9347,E,0.10,90.62,031112,,*2D
$IIMWV,272.0,R,9.0,N,A*33
$GPGGA,010259.000,4115.6418,S,17316.9347,E,1,06,1.5,10.3,M,18.9,M,,0000*7F
$GPGSA,A,3,31,16,20,30,23,29,,,,,,,2.7,1.5,2.3*3C
$IIMWV,278.0,R,8.0,N,A*38
$GPRMC,010300.000,A,4115.6418,S,17316.9347,E,0.12,80.70,031112,,*21
$IIMWV,275.0,R,7.0,N,A*3A
$GPRMC,010301.000,A,4115.6418,S,17316.9348,E,0.15,101.36,031112,,*12
$IIMWV,270.0,R,8.0,N,A*30
$GPRMC,010302.000,A,4115.6418,S,17316.9347,E,0.08,80.81,031112,,*26
$IIMWV,270.0,R,7.0,N,A*3F
$GPRMC,010303.000,A,4115.6418,S,17316.9347,E,0.09,105.94,031112,,*1E
$IIMWV,272.0,R,7.0,N,A*3D
$GPGGA,010304.000,4115.6418,S,17316.9347,E,1,06,1.5,10.6,M,18.9,M,,0000*73
$GPGSA,A,3,31,16,20,30,23,29,,,,,,,2.7,1.5,2.3*3C
$IIMWV,270.0,R,7.0,N,A*3F
$GPRMC,010305.000,A,4115.6418,S,17316.9347,E,0.16,105.83,031112,,*10
$IIMWV,264.0,R,10.0,N,A*C
$GPRMC,010306.000,A,4115.6419,S,17316.9348,E,0.19,111.61,031112,,*1B
$IIMWV,276.0,R,12.0,N,A*D
$GPRMC,010307.000,A,4115.6419,S,17316.9348,E,0.08,95.66,031112,,*20
$IIMWV,267.0,R,13.0,N,A*C
$GPRMC,010308.000,A,4115.6419,S,17316.9347,E,0.08,109.28,031112,,*1E
$IIMWV,255.0,R,12.0,N,A*C
$GPGGA,010309.000,4115.6419,S,17316.9347,E,1,06,1.5,10.9,M,18.9,M,,0000*70
$GPGSA,A,3,31,16,20,30,23,29,,,,,,,2.7,1.5,2.3*3C
$IIMWV,276.0,R,11.0,N,A*E
$GPRMC,010310.000,A,4115.6419,S,17316.9347,E,0.16,107.37,031112,,*18
$IIMWV,262.0,R,11.0,N,A*B
$GPRMC,010311.000,A,4115.6419,S,17316.9348,E,0.25,121.19,031112,,*1E
$IIMWV,261.0,R,11.0,N,A*8
$GPRMC,010312.000,A,4115.6420,S,17316.9348,E,0.18,120.43,031112,,*17
$IIMWV,276.0,R,10.0,N,A*F
$GPRMC,010313.000,A,4115.6420,S,17316.9348,E,0.13,118.79,031112,,*1F
$IIMWV,272.0,R,10.0,N,A*B
$GPGGA,010314.000,4115.6420,S,17316.9348,E,1,06,1.5,11.0,M,18.9,M,,0000*71
$GPGSA,A,3,31,16,20,30,23,29,,,,,,,2.7,1.5,2.3*3C
$IIMWV,277.0,R,9.0,N,A*36
$GPRMC,010315.000,A,4115.6420,S,17316.9348,E,0.16,114.94,031112,,*13
$IIMWV,283.0,R,9.0,N,A*3D
$GPRMC,010316.000,A,4115.6420,S,17316.9347,E,0.04,106.60,031112,,*14
$IIMWV,288.0,R,10.0,N,A*E
$GPRMC,010317.000,A,4115.6420,S,17316.9347,E,0.10,96.38,031112,,*25
$IIMWV,278.0,R,10.0,N,A*1
$GPRMC,010318.000,A,4115.6420,S,17316.9346,E,0.09,94.78,031112,,*25
$IIMWV,271.0,R,8.0,N,A*31
$GPGGA,010319.000,4115.6420,S,17316.9346,E,1,06,1.5,10.6,M,18.9,M,,0000*75
$GPGSA,A,3,31,16,20,30,23,29,,,,,,,2.7,1.5,2.3*3C
$IIMWV,258.0,R,8.0,N,A*3A
$GPRMC,010320.000,A,4115.6420,S,17316.9346,E,0.11,100.60,031112,,*12
$IIMWV,259.0,R,11.0,N,A*3
$GPRMC,010321.000,A,4115.6420,S,17316.9346,E,0.16,107.90,031112,,*1C
$IIMWV,258.0,R,12.0,N,A*1
$GPRMC,010322.000,A,4115.6420,S,17316.9346,E,0.07,56.57,031112,,*21
$IIMWV,255.0,R,13.0,N,A*D
$GPRMC,010323.000,A,4115.6420,S,17316.9345,E,0.05,51.48,031112,,*28
$IIMWV,262.0,R,13.0,N,A*9
$GPGGA,010324.000,4115.6420,S,17316.9345,E,1,06,1.5,10.3,M,18.9,M,,0000*7D
$GPGSA,A,3,31,16,20,30,23,29,,,,,,,2.7,1.5,2.3*3C
$IIMWV,266.0,R,11.0,N,A*F
$GPRMC,010325.000,A,4115.6420,S,17316.9345,E,0.06,96.40,031112,,*2E
$IIMWV,262.0,R,10.0,N,A*A
$GPRMC,010326.000,A,4115.6420,S,17316.9344,E,0.05,31.95,031112,,*2A
$IIMWV,256.0,R,9.0,N,A*35
$GPRMC,010327.000,A,4115.6420,S,17316.9344,E,0.03,101.32,031112,,*12
$IIMWV,270.0,R,9.0,N,A*31
$GPRMC,010328.000,A,4115.6420,S,17316.9344,E,0.04,128.84,031112,,*1C
$IIMWV,267.0,R,7.0,N,A*39
$GPGGA,010329.000,4115.6420,S,17316.9343,E,1,06,1.5,10.0,M,18.9,M,,0000*75
$GPGSA,A,3,31,16,20,30,23,29,,,,,,,2.7,1.5,2.3*3C
$IIMWV,281.0,R,8.0,N,A*3E
$GPRMC,010330.000,A,4115.6420,S,17316.9343,E,0.02,140.00,031112,,*16
$IIMWV,266.0,R,8.0,N,A*37
$GPRMC,010331.000,A,4115.6421,S,17316.9343,E,0.08,112.72,031112,,*1E
$IIMWV,250.0,R,10.0,N,A*B
$GPRMC,010332.000,A,4115.6421,S,17316.9343,E,0.16,120.74,031112,,*15
$IIMWV,254.0,R,10.0,N,A*F
$GPRMC,010333.000,A,4115.6421,S,17316.9343,E,0.21,112.55,031112,,*12
$IIMWV,250.0,R,10.0,N,A*B
$GPGGA,010334.000,4115.6421,S,17316.9339,E,1,06,1.5,7.6,M,18.9,M,,0000*45
$GPGSA,A,3,31,16,20,30,23,29,,,,,,,2.8,1.5,2.3*33
$IIMWV,258.0,R,10.0,N,A*3
$GPRMC,010335.000,A,4115.6420,S,17316.9337,E,0.09,109.28,031112,,*1C
$IIMWV,259.0,R,10.0,N,A*2
$GPRMC,010336.000,A,4115.6420,S,17316.9334,E,0.08,341.28,031112,,*13
$IIMWV,251.0,R,11.0,N,A*B
$GPRMC,010337.000,A,4115.6419,S,17316.9332,E,0.17,324.88,031112,,*19
$IIMWV,264.0,R,11.0,N,A*D
$GPRMC,010338.000,A,4115.6419,S,17316.9330,E,0.06,356.17,031112,,*17
$IIMWV,263.0,R,10.0,N,A*B
$GPGGA,010339.000,4115.6419,S,17316.9328,E,1,06,1.5,1.0,M,18.9,M,,0000*43
$GPGSA,A,3,31,16,20,30,23,29,,,,,,,2.8,1.5,2.3*33
$IIMWV,284.0,R,9.0,N,A*3A
$GPRMC,010340.000,A,4115.6418,S,17316.9327,E,0.10,331.10,031112,,*1E
$IIMWV,294.0,R,8.0,N,A*3A
$GPRMC,010341.000,A,4115.6418,S,17316.9326,E,0.07,335.12,031112,,*1E
$IIMWV,270.0,R,7.0,N,A*3F
$GPRMC,010342.000,A,4115.6418,S,17316.9324,E,0.15,315.17,031112,,*1B
$IIMWV,266.0,R,7.0,N,A*38
$GPRMC,010343.000,A,4115.6418,S,17316.9323,E,0.06,338.24,031112,,*10
$IIMWV,277.0,R,6.0,N,A*39
$GPGGA,010344.000,4115.6418,S,17316.9322,E,1,06,1.5,-3.3,M,18.9,M,,0000*6E
$GPGSA,A,3,31,16,20,30,23,29,,,,,,,2.8,1.5,2.3*33
$IIMWV,253.0,R,6.0,N,A*3F
$GPRMC,010345.000,A,4115.6417,S,17316.9321,E,0.19,330.29,031112,,*10
$IIMWV,285.0,R,6.0,N,A*34
$GPRMC,010346.000,A,4115.6417,S,17316.9320,E,0.18,322.75,031112,,*19
$IIMWV,249.0,R,7.0,N,A*35
$GPRMC,010347.000,A,4115.6417,S,17316.9319,E,0.16,329.77,031112,,*15
$IIMWV,252.0,R,7.0,N,A*3F
$GPRMC,010348.000,A,4115.6417,S,17316.9319,E,0.15,334.40,031112,,*11
$IIMWV,255.0,R,8.0,N,A*37
$GPGGA,010349.000,4115.6417,S,17316.9318,E,1,06,1.5,-6.9,M,18.9,M,,0000*6A
$GPGSA,A,3,31,16,20,30,23,29,,,,,,,2.8,1.5,2.3*33
$IIMWV,294.0,R,7.0,N,A*35
$GPRMC,010350.000,A,4115.6416,S,17316.9317,E,0.11,343.49,031112,,*1A
$IIMWV,270.0,R,6.0,N,A*3E
$GPRMC,010351.000,A,4115.6416,S,17316.9317,E,0.11,326.50,031112,,*10
$IIMWV,267.0,R,6.0,N,A*38
$GPRMC,010352.000,A,4115.6416,S,17316.9317,E,0.12,333.30,031112,,*12
$IIMWV,275.0,R,9.0,N,A*34
$GPRMC,010353.000,A,4115.6416,S,17316.9316,E,0.11,329.46,031112,,*1B
$IIMWV,277.0,R,9.0,N,A*36
$GPGGA,010354.000,4115.6416,S,17316.9316,E,1,06,1.5,-9.6,M,18.9,M,,0000*69
$GPGSA,A,3,31,16,20,30,23,29,,,,,,,2.8,1.5,2.3*33
$IIMWV,257.0,R,10.0,N,A*C
$GPRMC,010355.000,A,4115.6416,S,17316.9315,E,0.15,322.54,031112,,*12
$IIMWV,266.0,R,9.0,N,A*36
$GPRMC,010356.000,A,4115.6416,S,17316.9315,E,0.09,345.68,031112,,*12
$IIMWV,262.0,R,10.0,N,A*A
$GPRMC,010357.000,A,4115.6416,S,17316.9315,E,0.11,337.70,031112,,*16
$IIMWV,278.0,R,10.0,N,A*1
$GPRMC,010358.000,A,4115.6416,S,17316.9315,E,0.08,353.31,031112,,*16
$IIMWV,273.0,R,9.0,N,A*32
$GPGGA,010359.000,4115.6416,S,17316.9315,E,1,06,1.5,-11.7,M,18.9,M,,0000*5F
$GPGSA,A,3,31,16,20,30,23,29,,,,,,,2.8,1.5,2.3*33
$IIMWV,268.0,R,8.0,N,A*39
$GPRMC,010400.000,A,4115.6416,S,17316.9315,E,0.11,353.64,031112,,*14
$IIMWV,259.0,R,7.0,N,A*34
$GPRMC,010401.000,A,4115.6416,S,17316.9315,E,0.11,108.37,031112,,*1F
$IIMWV,270.0,R,5.0,N,A*3D
$GPRMC,010402.000,A,4115.6417,S,17316.9316,E,0.12,119.15,031112,,*1D
$IIMWV,283.0,R,5.0,N,A*31
$GPRMC,010403.000,A,4115.6417,S,17316.9317,E,0.06,54.03,031112,,*27
$IIMWV,288.0,R,5.0,N,A*3A
$GPGGA,010404.000,4115.6417,S,17316.9317,E,1,06,1.5,-10.2,M,18.9,M,,0000*57
$GPGSA,A,3,31,16,20,30,23,29,,,,,,,2.8,1.5,2.3*33
$IIMWV,296.0,R,6.0,N,A*36
$GPRMC,010405.000,A,4115.6418,S,17316.9318,E,0.15,116.47,031112,,*14
$IIMWV,285.0,R,6.0,N,A*34
$GPRMC,010406.000,A,4115.6418,S,17316.9319,E,0.09,96.80,031112,,*29
$IIMWV,281.0,R,6.0,N,A*30
$GPRMC,010407.000,A,4115.6418,S,17316.9318,E,0.06,75.13,031112,,*21
$IIMWV,275.0,R,7.0,N,A*3A
$GPRMC,010408.000,A,4115.6418,S,17316.9319,E,0.07,90.92,031112,,*2C
$IIMWV,273.0,R,7.0,N,A*3C
$GPGGA,010409.000,4115.6419,S,17316.9319,E,1,06,1.5,-8.9,M,18.9,M,,0000*68
$GPGSA,A,3,31,16,20,30,23,29,,,,,,,2.8,1.5,2.3*33
$IIMWV,254.0,R,7.0,N,A*39
$GPRMC,010410.000,A,4115.6419,S,17316.9319,E,0.06,70.06,031112,,*26
$IIMWV,275.0,R,6.0,N,A*3B
$GPRMC,010411.000,A,4115.6419,S,17316.9319,E,0.06,38.16,031112,,*2A
$IIMWV,263.0,R,6.0,N,A*3C
$GPRMC,010412.000,A,4115.6418,S,17316.9318,E,0.05,35.23,031112,,*21
$IIMWV,272.0,R,8.0,N,A*32
$GPRMC,010413.000,A,4115.6418,S,17316.9318,E,0.06,67.72,031112,,*20
$IIMWV,271.0,R,8.0,N,A*31
$GPGGA,010414.000,4115.6418,S,17316.9317,E,1,06,1.5,-10.9,M,18.9,M,,0000*52
$GPGSA,A,3,31,16,20,30,23,29,,,,,,,2.8,1.5,2.3*33
$IIMWV,274.0,R,8.0,N,A*34
$GPRMC,010415.000,A,4115.6418,S,17316.9317,E,0.08,3.12,031112,,*13
$IIMWV,264.0,R,8.0,N,A*35
$GPRMC,010416.000,A,4115.6418,S,17316.9316,E,0.06,332.90,031112,,*14
$IIMWV,283.0,R,7.0,N,A*33
$GPRMC,010417.000,A,4115.6418,S,17316.9316,E,0.07,344.48,031112,,*10
$IIMWV,283.0,R,6.0,N,A*32
$GPRMC,010418.000,A,4115.6418,S,17316.9316,E,0.14,102.87,031112,,*1E
$IIMWV,288.0,R,6.0,N,A*39
$GPGGA,010419.000,4115.6418,S,17316.9316,E,1,06,1.5,-12.5,M,18.9,M,,0000*50
$GPGSA,A,3,31,16,20,30,23,29,,,,,,,2.8,1.5,2.3*33
$IIMWV,271.0,R,8.0,N,A*31
$GPRMC,010420.000,A,4115.6418,S,17316.9316,E,0.05,22.91,031112,,*21
$IIMWV,277.0,R,9.0,N,A*36
$GPRMC,010421.000,A,4115.6418,S,17316.9315,E,0.04,357.06,031112,,*1D
$IIMWV,279.0,R,8.0,N,A*39
$GPRMC,010422.000,A,4115.6418,S,17316.9315,E,0.04,12.00,031112,,*2A
$IIMWV,282.0,R,8.0,N,A*3D
$GPRMC,010423.000,A,4115.6418,S,17316.9315,E,0.05,25.09,031112,,*27
$IIMWV,282.0,R,8.0,N,A*3D
$GPGGA,010424.000,4115.6418,S,17316.9315,E,1,06,1.5,-13.9,M,18.9,M,,0000*50
$GPGSA,A,3,31,16,20,30,23,29,,,,,,,2.8,1.5,2.3*33
$IIMWV,284.0,R,8.0,N,A*3B
$GPRMC,010425.000,A,4115.6418,S,17316.9315,E,0.19,112.51,031112,,*14
$IIMWV,292.0,R,9.0,N,A*3D
$GPRMC,010426.000,A,4115.6418,S,17316.9315,E,0.07,98.07,031112,,*28
$IIMWV,261.0,R,7.0,N,A*3F
$GPRMC,010427.000,A,4115.6418,S,17316.9315,E,0.05,120.10,031112,,*1F
$IIMWV,278.0,R,7.0,N,A*37
$GPRMC,010428.000,A,4115.6418,S,17316.9315,E,0.11,110.06,031112,,*11
$IIMWV,264.0,R,8.0,N,A*35
$GPGGA,010429.000,4115.6419,S,17316.9315,E,1,06,1.5,-15.2,M,18.9,M,,0000*51
$GPGSA,A,3,31,16,20,30,23,29,,,,,,,2.8,1.5,2.3*33
$IIMWV,268.0,R,8.0,N,A*39
$GPRMC,010430.000,A,4115.6418,S,17316.9315,E,0.02,40.39,031112,,*22
$IIMWV,270.0,R,9.0,N,A*31
$GPRMC,010431.000,A,4115.6418,S,17316.9314,E,0.06,336.92,031112,,*15
$IIMWV,260.0,R,9.0,N,A*30
$GPRMC,010432.000,A,4115.6418,S,17316.9314,E,0.04,353.76,031112,,*1D
$IIMWV,261.0,R,9.0,N,A*31
$GPRMC,010433.000,A,4115.6418,S,17316.9314,E,0.09,104.74,031112,,*13
$IIMWV,267.0,R,9.0,N,A*37
$GPGGA,010434.000,4115.6418,S,17316.9314,E,1,06,1.5,-16.4,M,18.9,M,,0000*58
$GPGSA,A,3,31,16,20,30,23,29,,,,,,,2.8,1.5,2.3*33
$IIMWV,266.0,R,9.0,N,A*36
$GPRMC,010435.000,A,4115.6419,S,17316.9314,E,0.15,121.22,031112,,*1D
$IIMWV,273.0,R,9.0,N,A*32
$GPRMC,010436.000,A,4115.6419,S,17316.9314,E,0.16,113.97,031112,,*12
$IIMWV,275.0,R,8.0,N,A*35
$GPRMC,010437.000,A,4115.6419,S,17316.9314,E,0.10,119.79,031112,,*1F
$IIMWV,261.0,R,7.0,N,A*3F
$GPRMC,010438.000,A,4115.6419,S,17316.9314,E,0.04,98.82,031112,,*29
$IIMWV,252.0,R,8.0,N,A*30
$GPGGA,010439.000,4115.6419,S,17316.9314,E,1,06,1.5,-17.4,M,18.9,M,,0000*55
$GPGSA,A,3,31,16,20,30,23,29,,,,,,,2.8,1.5,2.3*33
$IIMWV,250.0,R,8.0,N,A*32
$GPRMC,010440.000,A,4115.6419,S,17316.9314,E,0.04,39.57,031112,,*25
$IIMWV,263.0,R,7.0,N,A*3D
$GPRMC,010441.000,A,4115.6419,S,17316.9313,E,0.07,30.44,031112,,*2B
$IIMWV,247.0,R,7.0,N,A*3B
$GPRMC,010442.000,A,4115.6419,S,17316.9313,E,0.07,30.63,031112,,*2D
$IIMWV,237.0,R,5.0,N,A*3E
$GPRMC,010443.000,A,4115.6419,S,17316.9313,E,0.05,5.11,031112,,*1D
$IIMWV,246.0,R,4.0,N,A*39
$GPGGA,010444.000,4115.6419,S,17316.9313,E,1,06,1.5,-18.5,M,18.9,M,,0000*56
$GPGSA,A,3,31,16,20,30,23,29,,,,,,,2.8,1.5,2.3*33
$IIMWV,288.0,R,5.0,N,A*3A
$GPRMC,010445.000,A,4115.6418,S,17316.9312,E,0.07,11.00,031112,,*2C
$IIMWV,277.0,R,4.0,N,A*3B
$GPRMC,010446.000,A,4115.6418,S,17316.9312,E,0.09,2.66,031112,,*13
$IIMWV,288.0,R,4.0,N,A*3B
$GPRMC,010447.000,A,4115.6418,S,17316.9312,E,0.09,7.51,031112,,*13
$IIMWV,288.0,R,4.0,N,A*3B
$GPRMC,010448.000,A,4115.6418,S,17316.9312,E,0.07,75.68,031112,,*2D
$IIMWV,262.0,R,4.0,N,A*3F
$GPGGA,010449.000,4115.6418,S,17316.9312,E,1,06,1.5,-19.5,M,18.9,M,,0000*5A
$GPGSA,A,3,31,16,20,30,23,29,,,,,,,2.8,1.5,2.3*33
$IIMWV,269.0,R,6.0,N,A*36
$GPRMC,010450.000,A,4115.6418,S,17316.9311,E,0.07,10.41,031112,,*2F
$IIMWV,250.0,R,7.0,N,A*3D
$GPRMC,010451.000,A,4115.6418,S,17316.9311,E,0.05,40.20,031112,,*2E
$IIMWV,251.0,R,9.0,N,A*32
$GPRMC,010452.000,A,4115.6418,S,17316.9311,E,0.08,107.58,031112,,*1D
$IIMWV,261.0,R,10.0,N,A*9
$GPRMC,010453.000,A,4115.6418,S,17316.9311,E,0.04,344.14,031112,,*1D
$IIMWV,262.0,R,10.0,N,A*A
$GPGGA,010454.000,4115.6418,S,17316.9311,E,1,06,1.5,-20.2,M,18.9,M,,0000*58
$GPGSA,A,3,31,16,20,30,23,29,,,,,,,2.8,1.5,2.3*33
$IIMWV,265.0,R,10.0,N,A*D
$GPRMC,010455.000,A,4115.6418,S,17316.9311,E,0.03,76.52,031112,,*2C
$IIMWV,282.0,R,10.0,N,A*4
$GPRMC,010456.000,A,4115.6418,S,17316.9311,E,0.07,97.92,031112,,*28
$IIMWV,265.0,R,9.0,N,A*35
$GPRMC,010457.000,A,4115.6418,S,17316.9311,E,0.05,92.64,031112,,*27
$IIMWV,272.0,R,9.0,N,A*33
$GPRMC,010458.000,A,4115.6418,S,17316.9311,E,0.01,20.02,031112,,*25
$IIMWV,266.0,R,10.0,N,A*E
$GPGGA,010459.000,4115.6418,S,17316.9310,E,1,05,1.7,-20.7,M,18.9,M,,0000*50
$GPGSA,A,3,31,16,30,23,29,,,,,,,,2.9,1.7,2.4*35
$IIMWV,259.0,R,10.0,N,A*2
$GPRMC,010500.000,A,4115.6418,S,17316.9311,E,0.07,102.25,031112,,*1B
$IIMWV,257.0,R,10.0,N,A*C
$GPRMC,010501.000,A,4115.6418,S,17316.9311,E,0.08,108.04,031112,,*1C
$IIMWV,277.0,R,10.0,N,A*E
$GPRMC,010502.000,A,4115.6418,S,17316.9311,E,0.08,80.53,031112,,*2C
$IIMWV,261.0,R,10.0,N,A*9
$GPRMC,010503.000,A,4115.6418,S,17316.9311,E,0.07,51.45,031112,,*29
$IIMWV,265.0,R,10.0,N,A*D
$GPGGA,010504.000,4115.6418,S,17316.9311,E,1,06,1.5,-21.0,M,18.9,M,,0000*5F
$GPGSA,A,3,31,16,20,30,23,29,,,,,,,2.8,1.5,2.3*33
$IIMWV,273.0,R,11.0,N,A*B
$GPRMC,010505.000,A,4115.6418,S,17316.9311,E,0.06,31.81,031112,,*20
$IIMWV,275.0,R,10.0,N,A*C
$GPRMC,010506.000,A,4115.6418,S,17316.9310,E,0.07,76.26,031112,,*2D
$IIMWV,274.0,R,11.0,N,A*C
$GPRMC,010507.000,A,4115.6418,S,17316.9310,E,0.08,36.48,031112,,*2F
$IIMWV,270.0,R,12.0,N,A*B
$GPRMC,010508.000,A,4115.6418,S,17316.9310,E,0.05,44.76,031112,,*25
$IIMWV,265.0,R,10.0,N,A*D
$GPGGA,010509.000,4115.6418,S,17316.9310,E,1,05,1.7,-21.2,M,18.9,M,,0000*50
$GPGSA,A,3,31,16,30,23,29,,,,,,,,3.0,1.7,2.4*3D
$IIMWV,272.0,R,9.0,N,A*33
$GPRMC,010510.000,A,4115.6418,S,17316.9310,E,0.08,60.15,031112,,*22
$IIMWV,279.0,R,9.0,N,A*38
$GPRMC,010511.000,A,4115.6417,S,17316.9310,E,0.08,56.42,031112,,*2B
$IIMWV,271.0,R,10.0,N,A*8
$GPRMC,010512.000,A,4115.6417,S,17316.9310,E,0.12,98.57,031112,,*25
$IIMWV,270.0,R,10.0,N,A*9
$GPRMC,010513.000,A,4115.6417,S,17316.9310,E,0.10,89.50,031112,,*21
$IIMWV,263.0,R,10.0,N,A*B
$GPGGA,010514.000,4115.6417,S,17316.9310,E,1,06,1.5,-21.5,M,18.9,M,,0000*55
$GPGSA,A,3,31,16,20,30,23,29,,,,,,,2.8,1.5,2.3*33
$IIMWV,242.0,R,9.0,N,A*30
$GPRMC,010515.000,A,4115.6417,S,17316.9310,E,0.08,82.51,031112,,*24
$IIMWV,254.0,R,8.0,N,A*36
$GPRMC,010516.000,A,4115.6417,S,17316.9310,E,0.06,97.54,031112,,*28
$IIMWV,259.0,R,8.0,N,A*3B
$GPRMC,010517.000,A,4115.6417,S,17316.9309,E,0.08,84.82,031112,,*26
$IIMWV,264.0,R,8.0,N,A*35
$GPRMC,010518.000,A,4115.6417,S,17316.9309,E,0.09,101.37,031112,,*1A
$IIMWV,249.0,R,7.0,N,A*35
$GPGGA,010519.000,4115.6417,S,17316.9309,E,1,05,1.7,-21.7,M,18.9,M,,0000*53
$GPGSA,A,3,31,16,30,23,29,,,,,,,,3.0,1.7,2.4*3D
$IIMWV,242.0,R,6.0,N,A*3F
$GPRMC,010520.000,A,4115.6417,S,17316.9309,E,0.11,96.33,031112,,*23
$IIMWV,252.0,R,7.0,N,A*3F
$GPRMC,010521.000,A,4115.6417,S,17316.9309,E,0.07,89.98,031112,,*2A
$IIMWV,269.0,R,7.0,N,A*37
$GPRMC,010522.000,A,4115.6417,S,17316.9309,E,0.10,117.74,031112,,*1B
$IIMWV,264.0,R,7.0,N,A*3A
$GPRMC,010523.000,A,4115.6417,S,17316.9309,E,0.09,114.13,031112,,*10
$IIMWV,275.0,R,8.0,N,A*35
$GPGGA,010524.000,4115.6418,S,17316.9309,E,1,05,1.7,-21.9,M,18.9,M,,0000*5C
$GPGSA,A,3,31,16,30,23,29,,,,,,,,3.0,1.7,2.4*3D
$IIMWV,270.0,R,7.0,N,A*3F
$GPRMC,010525.000,A,4115.6418,S,17316.9309,E,0.10,119.72,031112,,*1B
$IIMWV,252.0,R,8.0,N,A*30
$GPRMC,010526.000,A,4115.6418,S,17316.9309,E,0.08,113.50,031112,,*1B
$IIMWV,256.0,R,11.0,N,A*C
$GPRMC,010527.000,A,4115.6418,S,17316.9308,E,0.01,142.42,031112,,*15
$IIMWV,270.0,R,11.0,N,A*8
$GPRMC,010528.000,A,4115.6418,S,17316.9308,E,0.05,119.38,031112,,*1D
$IIMWV,267.0,R,14.0,N,A*B
$GPGGA,010529.000,4115.6418,S,17316.9308,E,1,06,1.5,-22.4,M,18.9,M,,0000*5F
$GPGSA,A,3,31,16,20,30,23,29,,,,,,,2.8,1.5,2.3*33
$IIMWV,261.0,R,15.0,N,A*C
$GPRMC,010530.000,A,4115.6418,S,17316.9307,E,0.08,16.00,031112,,*23
$IIMWV,260.0,R,14.0,N,A*C
$GPRMC,010531.000,A,4115.6417,S,17316.9307,E,0.08,18.07,031112,,*24
$IIMWV,260.0,R,14.0,N,A*C
$GPRMC,010532.000,A,4115.6417,S,17316.9307,E,0.11,19.48,031112,,*25
$IIMWV,258.0,R,13.0,N,A*0
$GPRMC,010533.000,A,4115.6417,S,17316.9307,E,0.12,4.82,031112,,*1D
$IIMWV,261.0,R,12.0,N,A*B
$GPGGA,010534.000,4115.6417,S,17316.9306,E,1,07,1.4,-22.7,M,18.9,M,,0000*51
$GPGSA,A,3,31,16,20,30,23,29,32,,,,,,2.6,1.4,2.2*3C
$IIMWV,259.0,R,12.0,N,A*0
$GPRMC,010535.000,A,4115.6416,S,17316.9306,E,0.10,9.51,031112,,*1A
$IIMWV,256.0,R,11.0,N,A*C
$GPRMC,010536.000,A,4115.6416,S,17316.9305,E,0.07,12.19,031112,,*2A
$IIMWV,257.0,R,12.0,N,A*E
$GPRMC,010537.000,A,4115.6416,S,17316.9305,E,0.05,43.00,031112,,*25
$IIMWV,261.0,R,12.0,N,A*B
$GPRMC,010538.000,A,4115.6416,S,17316.9305,E,0.06,70.27,031112,,*2C
$IIMWV,266.0,R,12.0,N,A*C
$GPGGA,010539.000,4115.6416,S,17316.9305,E,1,07,1.4,-23.2,M,18.9,M,,0000*5A
$GPGSA,A,3,31,16,20,30,23,29,32,,,,,,2.6,1.4,2.2*3C
$IIMWV,255.0,R,11.0,N,A*F
$GPRMC,010540.000,A,4115.6416,S,17316.9305,E,0.05,102.16,031112,,*16
$IIMWV,254.0,R,13.0,N,A*C
$GPRMC,010541.000,A,4115.6416,S,17316.9304,E,0.06,142.00,031112,,*16
$IIMWV,254.0,R,13.0,N,A*C
$GPRMC,010542.000,A,4115.6416,S,17316.9304,E,0.07,136.37,031112,,*13
$IIMWV,258.0,R,12.0,N,A*1
$GPRMC,010543.000,A,4115.6416,S,17316.9304,E,0.12,15.20,031112,,*20
$IIMWV,252.0,R,13.0,N,A*A
$GPGGA,010544.000,4115.6416,S,17316.9304,E,1,07,1.4,-23.7,M,18.9,M,,0000*54
$GPGSA,A,3,31,16,20,30,23,29,32,,,,,,2.6,1.4,2.2*3C
$IIMWV,269.0,R,13.0,N,A*2
$GPRMC,010545.000,A,4115.6415,S,17316.9303,E,0.10,356.36,031112,,*13
$IIMWV,273.0,R,13.0,N,A*9
$GPRMC,010546.000,A,4115.6415,S,17316.9303,E,0.04,136.21,031112,,*17
$IIMWV,267.0,R,13.0,N,A*C
$GPRMC,010547.000,A,4115.6416,S,17316.9303,E,0.08,124.49,031112,,*14
$IIMWV,259.0,R,10.0,N,A*2
$GPRMC,010548.000,A,4115.6416,S,17316.9304,E,0.06,69.65,031112,,*24
$IIMWV,273.0,R,9.0,N,A*32
$GPGGA,010549.000,4115.6416,S,17316.9303,E,1,07,1.4,-23.7,M,18.9,M,,0000*5E
$GPGSA,A,3,31,16,20,30,23,29,32,,,,,,2.6,1.4,2.2*3C
$IIMWV,282.0,R,8.0,N,A*3D
$GPRMC,010550.000,A,4115.6416,S,17316.9303,E,0.09,10.63,031112,,*2D
$IIMWV,271.0,R,8.0,N,A*31
$GPRMC,010551.000,A,4115.6416,S,17316.9303,E,0.09,147.06,031112,,*1C
$IIMWV,258.0,R,9.0,N,A*3B
$GPRMC,010552.000,A,4115.6416,S,17316.9303,E,0.03,304.02,031112,,*14
$IIMWV,249.0,R,8.0,N,A*3A
$GPRMC,010553.000,A,4115.6416,S,17316.9303,E,0.12,16.69,031112,,*28
$IIMWV,242.0,R,8.0,N,A*31
$GPGGA,010554.000,4115.6416,S,17316.9303,E,1,07,1.4,-23.9,M,18.9,M,,0000*5C
$GPGSA,A,3,31,16,20,30,23,29,32,,,,,,2.6,1.4,2.2*3C
$IIMWV,248.0,R,8.0,N,A*3B
$GPRMC,010555.000,A,4115.6416,S,17316.9303,E,0.03,77.62,031112,,*22
$IIMWV,250.0,R,7.0,N,A*3D
$GPRMC,010556.000,A,4115.6416,S,17316.9302,E,0.06,126.61,031112,,*13
$IIMWV,254.0,R,7.0,N,A*39
$GPRMC,010557.000,A,4115.6416,S,17316.9302,E,0.04,128.64,031112,,*1B
$IIMWV,256.0,R,8.0,N,A*34
$GPRMC,010558.000,A,4115.6416,S,17316.9302,E,0.13,15.04,031112,,*2B
$IIMWV,252.0,R,9.0,N,A*31
$GPGGA,010559.000,4115.6416,S,17316.9302,E,1,07,1.4,-24.2,M,18.9,M,,0000*5C
$GPGSA,A,3,31,16,20,30,23,29,32,,,,,,2.6,1.4,2.2*3C
$IIMWV,264.0,R,9.0,N,A*34
$GPRMC,010600.000,A,4115.6415,S,17316.9302,E,0.09,11.20,031112,,*2F
$IIMWV,267.0,R,9.0,N,A*37
$GPRMC,010601.000,A,4115.6415,S,17316.9302,E,0.07,20.81,031112,,*29
$IIMWV,256.0,R,8.0,N,A*34
$GPRMC,010602.000,A,4115.6415,S,17316.9301,E,0.08,23.03,031112,,*2F
$IIMWV,258.0,R,7.0,N,A*35
$GPRMC,010603.000,A,4115.6415,S,17316.9301,E,0.08,15.64,031112,,*2A
$IIMWV,275.0,R,6.0,N,A*3B
$GPGGA,010604.000,4115.6415,S,17316.9301,E,1,07,1.4,-24.7,M,18.9,M,,0000*52
$GPGSA,A,3,31,16,20,30,23,29,32,,,,,,2.6,1.4,2.2*3C
$IIMWV,274.0,R,6.0,N,A*3A
$GPRMC,010605.000,A,4115.6415,S,17316.9301,E,0.09,16.50,031112,,*29
$IIMWV,291.0,R,8.0,N,A*3F
$GPRMC,010606.000,A,4115.6415,S,17316.9301,E,0.08,10.32,031112,,*29
$IIMWV,285.0,R,10.0,N,A*3
$GPRMC,010607.000,A,4115.6414,S,17316.9300,E,0.10,5.11,031112,,*14
$IIMWV,272.0,R,9.0,N,A*33
$GPRMC,010608.000,A,4115.6414,S,17316.9300,E,0.11,1.40,031112,,*1A
$IIMWV,269.0,R,9.0,N,A*39
$GPGGA,010609.000,4115.6414,S,17316.9300,E,1,07,1.4,-25.1,M,18.9,M,,0000*58
$GPGSA,A,3,31,16,20,30,23,29,32,,,,,,2.6,1.4,2.2*3C
$IIMWV,269.0,R,8.0,N,A*38
$GPRMC,010610.000,A,4115.6414,S,17316.9300,E,0.12,7.76,031112,,*13
$IIMWV,267.0,R,8.0,N,A*36
$GPRMC,010611.000,A,4115.6414,S,17316.9300,E,0.09,12.24,031112,,*2B
$IIMWV,256.0,R,8.0,N,A*34
$GPRMC,010612.000,A,4115.6413,S,17316.9299,E,0.09,9.81,031112,,*1B
$IIMWV,262.0,R,8.0,N,A*33
$GPRMC,010613.000,A,4115.6413,S,17316.9299,E,0.08,5.83,031112,,*15
$IIMWV,254.0,R,7.0,N,A*39
$GPGGA,010614.000,4115.6413,S,17316.9299,E,1,07,1.4,-25.5,M,18.9,M,,0000*56
$GPGSA,A,3,31,16,20,30,23,29,32,,,,,,2.6,1.4,2.2*3C
$IIMWV,246.0,R,6.0,N,A*3B
$GPRMC,010615.000,A,4115.6413,S,17316.9299,E,0.06,3.74,031112,,*13
$IIMWV,256.0,R,5.0,N,A*39
$GPRMC,010616.000,A,4115.6413,S,17316.9298,E,0.05,28.55,031112,,*28
$IIMWV,258.0,R,4.0,N,A*36
$GPRMC,010617.000,A,4115.6413,S,17316.9298,E,0.03,27.79,031112,,*2E
$IIMWV,262.0,R,4.0,N,A*3F
$GPRMC,010618.000,A,4115.6413,S,17316.9298,E,0.05,34.08,031112,,*23
$IIMWV,279.0,R,4.0,N,A*35
$GPGGA,010619.000,4115.6413,S,17316.9298,E,1,07,1.4,-24.9,M,18.9,M,,0000*57
$GPGSA,A,3,31,16,20,30,23,29,32,,,,,,2.6,1.4,2.2*3C
$IIMWV,275.0,R,5.0,N,A*38
$GPRMC,010620.000,A,4115.6413,S,17316.9298,E,0.05,35.44,031112,,*21
$IIMWV,273.0,R,8.0,N,A*33
$GPRMC,010621.000,A,4115.6413,S,17316.9298,E,0.06,80.07,031112,,*2A
$IIMWV,265.0,R,10.0,N,A*D
$GPRMC,010622.000,A,4115.6413,S,17316.9298,E,0.03,85.01,031112,,*2F
$IIMWV,260.0,R,10.0,N,A*8
$GPRMC,010623.000,A,4115.6414,S,17316.9298,E,0.04,78.92,031112,,*26
$IIMWV,262.0,R,11.0,N,A*B
$GPGGA,010624.000,4115.6414,S,17316.9298,E,1,07,1.4,-22.0,M,18.9,M,,0000*51
$GPGSA,A,3,31,16,20,30,23,29,32,,,,,,2.6,1.4,2.2*3C
$IIMWV,260.0,R,11.0,N,A*9
$GPRMC,010625.000,A,4115.6414,S,17316.9298,E,0.09,109.74,031112,,*12
$IIMWV,267.0,R,10.0,N,A*F
$GPRMC,010626.000,A,4115.6414,S,17316.9298,E,0.08,123.50,031112,,*1E
$IIMWV,273.0,R,10.0,N,A*A
$GPRMC,010627.000,A,4115.6414,S,17316.9298,E,0.07,126.59,031112,,*1C
$IIMWV,270.0,R,10.0,N,A*9
$GPRMC,010628.000,A,4115.6414,S,17316.9297,E,0.05,98.14,031112,,*23
$IIMWV,271.0,R,11.0,N,A*9
$GPGGA,010629.000,4115.6414,S,17316.9297,E,1,07,1.4,-21.0,M,18.9,M,,0000*50
$GPGSA,A,3,31,16,20,30,23,29,32,,,,,,2.6,1.4,2.2*3C
$IIMWV,266.0,R,11.0,N,A*F
$GPRMC,010630.000,A,4115.6414,S,17316.9297,E,0.09,15.49,031112,,*2B
$IIMWV,257.0,R,10.0,N,A*C
$GPRMC,010631.000,A,4115.6413,S,17316.9296,E,0.08,10.84,031112,,*29
$IIMWV,279.0,R,10.0,N,A*0
$GPRMC,010632.000,A,4115.6413,S,17316.9296,E,0.10,353.44,031112,,*1B
$IIMWV,280.0,R,10.0,N,A*6
$GPRMC,010633.000,A,4115.6413,S,17316.9296,E,0.09,2.12,031112,,*16
$IIMWV,280.0,R,9.0,N,A*3E
$GPGGA,010634.000,4115.6413,S,17316.9295,E,1,07,1.4,-21.9,M,18.9,M,,0000*50
$GPGSA,A,3,31,16,20,30,23,29,32,,,,,,2.6,1.4,2.2*3C
$IIMWV,288.0,R,9.0,N,A*36
$GPRMC,010635.000,A,4115.6413,S,17316.9295,E,0.06,0.55,031112,,*1D
$IIMWV,278.0,R,8.0,N,A*38
$GPRMC,010636.000,A,4115.6412,S,17316.9295,E,0.07,359.89,031112,,*10
$IIMWV,279.0,R,7.0,N,A*36
$GPRMC,010637.000,A,4115.6412,S,17316.9294,E,0.06,5.57,031112,,*18
$IIMWV,269.0,R,6.0,N,A*36
$GPRMC,010638.000,A,4115.6412,S,17316.9294,E,0.05,2.26,031112,,*15
$IIMWV,279.0,R,6.0,N,A*37
$GPGGA,010639.000,4115.6412,S,17316.9294,E,1,07,1.4,-22.7,M,18.9,M,,0000*50
$GPGSA,A,3,31,16,20,30,23,29,32,,,,,,2.6,1.4,2.2*3C
$IIMWV,253.0,R,5.0,N,A*3C
$GPRMC,010640.000,A,4115.6412,S,17316.9294,E,0.03,21.32,031112,,*28
$IIMWV,252.0,R,5.0,N,A*3D
$GPRMC,010641.000,A,4115.6412,S,17316.9293,E,0.05,15.84,031112,,*22
$IIMWV,262.0,R,5.0,N,A*3E
$GPRMC,010642.000,A,4115.6412,S,17316.9293,E,0.02,12.77,031112,,*2D
$IIMWV,275.0,R,6.0,N,A*3B
$GPRMC,010643.000,A,4115.6412,S,17316.9293,E,0.04,29.67,031112,,*23
$IIMWV,284.0,R,9.0,N,A*3A
$GPGGA,010644.000,4115.6412,S,17316.9293,E,1,07,1.4,-22.0,M,18.9,M,,0000*5A
$GPGSA,A,3,31,16,20,30,23,29,32,,,,,,2.6,1.4,2.2*3C
$IIMWV,274.0,R,9.0,N,A*35
$GPRMC,010645.000,A,4115.6412,S,17316.9293,E,0.07,36.15,031112,,*2D
$IIMWV,268.0,R,10.0,N,A*0
$GPRMC,010646.000,A,4115.6412,S,17316.9293,E,0.06,64.21,031112,,*2F
$IIMWV,272.0,R,11.0,N,A*A
$GPRMC,010647.000,A,4115.6412,S,17316.9294,E,0.05,94.42,031112,,*20
$IIMWV,273.0,R,10.0,N,A*A
$GPRMC,010648.000,A,4115.6412,S,17316.9294,E,0.08,104.43,031112,,*1B
$IIMWV,268.0,R,10.0,N,A*0
$GPGGA,010649.000,4115.6413,S,17316.9294,E,1,07,1.4,-19.6,M,18.9,M,,0000*5F
$GPGSA,A,3,31,16,20,30,23,29,32,,,,,,2.6,1.4,2.2*3C
$IIMWV,271.0,R,8.0,N,A*31
$GPRMC,010650.000,A,4115.6413,S,17316.9294,E,0.20,147.05,031112,,*1C
$IIMWV,282.0,R,9.0,N,A*3C
$GPRMC,010651.000,A,4115.6413,S,17316.9294,E,0.15,147.90,031112,,*17
$IIMWV,260.0,R,9.0,N,A*30
$GPRMC,010652.000,A,4115.6414,S,17316.9294,E,0.10,148.40,031112,,*14
$IIMWV,265.0,R,8.0,N,A*34
$GPRMC,010653.000,A,4115.6414,S,17316.9294,E,0.07,81.92,031112,,*28
$IIMWV,256.0,R,10.0,N,A*D
$GPGGA,010654.000,4115.6414,S,17316.9294,E,1,07,1.4,-20.0,M,18.9,M,,0000*58
$GPGSA,A,3,31,16,20,30,23,29,32,,,,,,2.6,1.4,2.2*3C
$IIMWV,255.0,R,12.0,N,A*C
$GPRMC,010655.000,A,4115.6414,S,17316.9294,E,0.04,38.19,031112,,*2C
$IIMWV,263.0,R,12.0,N,A*9
$GPRMC,010656.000,A,4115.6414,S,17316.9294,E,0.05,45.75,031112,,*2E
$IIMWV,261.0,R,13.0,N,A*A
$GPRMC,010657.000,A,4115.6413,S,17316.9294,E,0.04,46.78,031112,,*27
$IIMWV,266.0,R,11.0,N,A*F
$GPRMC,010658.000,A,4115.6413,S,17316.9294,E,0.05,46.79,031112,,*28
$IIMWV,267.0,R,11.0,N,A*E
$GPGGA,010659.000,4115.6413,S,17316.9294,E,1,07,1.4,-20.6,M,18.9,M,,0000*54
$GPGSA,A,3,31,16,20,30,23,29,32,,,,,,2.6,1.4,2.2*3C
$IIMWV,272.0,R,12.0,N,A*9
$GPRMC,010700.000,A,4115.6413,S,17316.9294,E,0.06,24.35,031112,,*2B
$IIMWV,261.0,R,12.0,N,A*B
$GPRMC,010701.000,A,4115.6413,S,17316.9293,E,0.03,22.53,031112,,*2E
$IIMWV,279.0,R,12.0,N,A*2
$GPRMC,010702.000,A,4115.6413,S,17316.9293,E,0.05,15.31,031112,,*2B
$IIMWV,288.0,R,12.0,N,A*C
$GPRMC,010703.000,A,4115.6413,S,17316.9293,E,0.04,27.70,031112,,*2F
$IIMWV,265.0,R,13.0,N,A*E
$GPGGA,010704.000,4115.6413,S,17316.9293,E,1,07,1.4,-21.1,M,18.9,M,,0000*5C
$GPGSA,A,3,31,16,20,30,23,29,32,,,,,,2.6,1.4,2.2*3C
$IIMWV,268.0,R,15.0,N,A*5
$GPRMC,010705.000,A,4115.6413,S,17316.9293,E,0.08,166.31,031112,,*14
$IIMWV,259.0,R,14.0,N,A*6
$GPRMC,010706.000,A,4115.6413,S,17316.9293,E,0.10,357.66,031112,,*1C
$IIMWV,272.0,R,15.0,N,A*E
$GPRMC,010707.000,A,4115.6413,S,17316.9293,E,0.07,3.04,031112,,*1D
$IIMWV,276.0,R,16.0,N,A*9
$GPRMC,010708.000,A,4115.6413,S,17316.9293,E,0.09,358.58,031112,,*18
$IIMWV,270.0,R,15.0,N,A*C
$GPGGA,010709.000,4115.6413,S,17316.9293,E,1,07,1.4,-21.4,M,18.9,M,,0000*54
$GPGSA,A,3,31,16,20,30,23,29,32,,,,,,2.6,1.4,2.2*3C
$IIMWV,268.0,R,15.0,N,A*5
$GPRMC,010710.000,A,4115.6413,S,17316.9293,E,0.05,139.83,031112,,*1E
$IIMWV,269.0,R,14.0,N,A*5
$GPRMC,010711.000,A,4115.6413,S,17316.9293,E,0.07,13.56,031112,,*2C
$IIMWV,255.0,R,15.0,N,A*B
$GPRMC,010712.000,A,4115.6413,S,17316.9293,E,0.06,123.03,031112,,*1C
$IIMWV,263.0,R,15.0,N,A*E
$GPRMC,010713.000,A,4115.6413,S,17316.9293,E,0.04,89.81,031112,,*24
$IIMWV,265.0,R,14.0,N,A*9
$GPGGA,010714.000,4115.6413,S,17316.9293,E,1,07,1.4,-21.7,M,18.9,M,,0000*5B
$GPGSA,A,3,31,16,20,30,23,29,32,,,,,,2.6,1.4,2.2*3C
$IIMWV,275.0,R,12.0,N,A*E
$GPRMC,010715.000,A,4115.6412,S,17316.9293,E,0.11,22.83,031112,,*24
$IIMWV,280.0,R,11.0,N,A*7
$GPRMC,010716.000,A,4115.6413,S,17316.9293,E,0.17,151.48,031112,,*12
$IIMWV,267.0,R,12.0,N,A*D
$GPRMC,010717.000,A,4115.6413,S,17316.9293,E,0.05,90.13,031112,,*22
$IIMWV,272.0,R,12.0,N,A*9
$GPRMC,010718.000,A,4115.6413,S,17316.9293,E,0.10,154.87,031112,,*1D
$IIMWV,259.0,R,11.0,N,A*3
$GPGGA,010719.000,4115.6413,S,17316.9293,E,1,07,1.4,-22.0,M,18.9,M,,0000*52
$GPGSA,A,3,31,16,20,30,23,29,32,,,,,,2.6,1.4,2.2*3C
$IIMWV,270.0,R,9.0,N,A*31
$GPRMC,010720.000,A,4115.6413,S,17316.9293,E,0.05,17.39,031112,,*21
$IIMWV,286.0,R,9.0,N,A*38
$GPRMC,010721.000,A,4115.6413,S,17316.9293,E,0.05,11.80,031112,,*24
$IIMWV,267.0,R,9.0,N,A*37
$GPRMC,010722.000,A,4115.6413,S,17316.9293,E,0.04,21.60,031112,,*2B
$IIMWV,259.0,R,11.0,N,A*3
$GPRMC,010723.000,A,4115.6412,S,17316.9293,E,0.05,38.49,031112,,*29
$IIMWV,275.0,R,11.0,N,A*D
$GPGGA,010724.000,4115.6412,S,17316.9293,E,1,07,1.4,-22.4,M,18.9,M,,0000*59
$GPGSA,A,3,31,16,20,30,23,29,32,,,,,,2.6,1.4,2.2*3C
$IIMWV,265.0,R,10.0,N,A*D
$GPRMC,010725.000,A,4115.6412,S,17316.9292,E,0.04,12.08,031112,,*22
$IIMWV,269.0,R,11.0,N,A*0
$GPRMC,010726.000,A,4115.6412,S,17316.9292,E,0.03,88.22,031112,,*2D
$IIMWV,285.0,R,11.0,N,A*2
$GPRMC,010727.000,A,4115.6412,S,17316.9292,E,0.03,53.92,031112,,*21
$IIMWV,271.0,R,11.0,N,A*9
$GPRMC,010728.000,A,4115.6412,S,17316.9292,E,0.05,28.38,031112,,*24
$IIMWV,260.0,R,11.0,N,A*9
$GPGGA,010729.000,4115.6412,S,17316.9292,E,1,07,1.4,-22.6,M,18.9,M,,0000*57
$GPGSA,A,3,31,16,20,30,23,29,32,,,,,,2.6,1.4,2.2*3C
$IIMWV,266.0,R,12.0,N,A*C
$GPRMC,010730.000,A,4115.6412,S,17316.9292,E,0.03,346.88,031112,,*1B
$IIMWV,276.0,R,11.0,N,A*E
$GPRMC,010731.000,A,4115.6412,S,17316.9292,E,0.05,23.95,031112,,*20
$IIMWV,255.0,R,10.0,N,A*E
$GPRMC,010732.000,A,4115.6412,S,17316.9292,E,0.05,16.99,031112,,*29
$IIMWV,275.0,R,11.0,N,A*D
$GPRMC,010733.000,A,4115.6412,S,17316.9292,E,0.05,27.72,031112,,*2F
$IIMWV,269.0,R,14.0,N,A*5
$GPGGA,010734.000,4115.6412,S,17316.9292,E,1,07,1.4,-22.7,M,18.9,M,,0000*5A
$GPGSA,A,3,31,16,20,30,23,29,32,,,,,,2.6,1.4,2.2*3C
$IIMWV,269.0,R,14.0,N,A*5
$GPRMC,010735.000,A,4115.6412,S,17316.9292,E,0.08,12.06,031112,,*21
$IIMWV,257.0,R,14.0,N,A*8
$GPRMC,010736.000,A,4115.6412,S,17316.9292,E,0.09,349.89,031112,,*19
$IIMWV,262.0,R,12.0,N,A*8
$GPRMC,010737.000,A,4115.6411,S,17316.9292,E,0.15,345.73,031112,,*1F
$IIMWV,256.0,R,12.0,N,A*F
$GPRMC,010738.000,A,4115.6411,S,17316.9292,E,0.12,348.79,031112,,*10
$IIMWV,259.0,R,13.0,N,A*1
$GPGGA,010739.000,4115.6411,S,17316.9292,E,1,07,1.4,-22.7,M,18.9,M,,0000*54
$GPGSA,A,3,31,16,20,30,23,29,32,,,,,,2.6,1.4,2.2*3C
$IIMWV,253.0,R,11.0,N,A*9
$GPRMC,010740.000,A,4115.6411,S,17316.9291,E,0.04,347.84,031112,,*16
$IIMWV,256.0,R,10.0,N,A*D
$GPRMC,010741.000,A,4115.6411,S,17316.9291,E,0.04,351.79,031112,,*12
$IIMWV,270.0,R,10.0,N,A*9
$GPRMC,010742.000,A,4115.6411,S,17316.9291,E,0.05,47.52,031112,,*2D
$IIMWV,258.0,R,11.0,N,A*2
$GPRMC,010743.000,A,4115.6411,S,17316.9291,E,0.05,27.43,031112,,*2A
$IIMWV,256.0,R,11.0,N,A*C
$GPGGA,010744.000,4115.6411,S,17316.9291,E,1,07,1.4,-22.7,M,18.9,M,,0000*5D
$GPGSA,A,3,31,16,20,30,23,29,32,,,,,,2.6,1.4,2.2*3C
$IIMWV,254.0,R,10.0,N,A*F
$GPRMC,010745.000,A,4115.6411,S,17316.9291,E,0.05,71.46,031112,,*2A
$IIMWV,275.0,R,10.0,N,A*C
$GPRMC,010746.000,A,4115.6411,S,17316.9291,E,0.05,95.90,031112,,*28
$IIMWV,276.0,R,12.0,N,A*D
$GPRMC,010747.000,A,4115.6411,S,17316.9291,E,0.07,94.79,031112,,*2D
$IIMWV,277.0,R,14.0,N,A*A
$GPRMC,010748.000,A,4115.6412,S,17316.9291,E,0.12,143.20,031112,,*12
$IIMWV,277.0,R,15.0,N,A*B
$GPGGA,010749.000,4115.6412,S,17316.9292,E,1,07,1.4,-22.6,M,18.9,M,,0000*51
$GPGSA,A,3,31,16,20,30,23,29,32,,,,,,2.6,1.4,2.2*3C
$IIMWV,270.0,R,14.0,N,A*D
$GPRMC,010750.000,A,4115.6412,S,17316.9292,E,0.04,115.66,031112,,*1E
$IIMWV,278.0,R,12.0,N,A*3
$GPRMC,010751.000,A,4115.6412,S,17316.9292,E,0.06,98.46,031112,,*2B
$IIMWV,267.0,R,11.0,N,A*E
$GPRMC,010752.000,A,4115.6412,S,17316.9292,E,0.04,94.47,031112,,*27
$IIMWV,272.0,R,11.0,N,A*A
$GPRMC,010753.000,A,4115.6412,S,17316.9292,E,0.07,48.66,031112,,*27
$IIMWV,263.0,R,10.0,N,A*B
$GPGGA,010754.000,4115.6412,S,17316.9292,E,1,07,1.4,-22.7,M,18.9,M,,0000*5C
$GPGSA,A,3,31,16,20,30,23,29,32,,,,,,2.6,1.4,2.2*3C
$IIMWV,260.0,R,11.0,N,A*9
$GPRMC,010755.000,A,4115.6412,S,17316.9291,E,0.08,153.84,031112,,*1A
$IIMWV,261.0,R,12.0,N,A*B
$GPRMC,010756.000,A,4115.6412,S,17316.9291,E,0.02,73.56,031112,,*2F
$IIMWV,254.0,R,12.0,N,A*D
$GPRMC,010757.000,A,4115.6412,S,17316.9291,E,0.04,102.14,031112,,*19
$IIMWV,261.0,R,12.0,N,A*B
$GPRMC,010758.000,A,4115.6412,S,17316.9291,E,0.03,112.79,031112,,*1B
$IIMWV,259.0,R,12.0,N,A*0
$GPGGA,010759.000,4115.6412,S,17316.9291,E,1,07,1.4,-22.8,M,18.9,M,,0000*5D
$GPGSA,A,3,31,16,20,30,23,29,32,,,,,,2.6,1.4,2.2*3C
$IIMWV,267.0,R,11.0,N,A*E
$GPRMC,010800.000,A,4115.6412,S,17316.9291,E,0.06,38.58,031112,,*26
$IIMWV,266.0,R,12.0,N,A*C
$GPRMC,010801.000,A,4115.6412,S,17316.9291,E,0.09,120.10,031112,,*1C
$IIMWV,280.0,R,11.0,N,A*7
$GPRMC,010802.000,A,4115.6413,S,17316.9291,E,0.09,150.38,031112,,*13
$IIMWV,267.0,R,10.0,N,A*F
$GPRMC,010803.000,A,4115.6413,S,17316.9291,E,0.03,63.60,031112,,*24
$IIMWV,263.0,R,9.0,N,A*33
$GPGGA,010804.000,4115.6413,S,17316.9291,E,1,07,1.4,-22.9,M,18.9,M,,0000*5A
$GPGSA,A,3,31,16,20,30,23,29,32,,,,,,2.6,1.4,2.2*3C
$IIMWV,282.0,R,10.0,N,A*4
$GPRMC,010805.000,A,4115.6413,S,17316.9291,E,0.05,14.89,031112,,*23
$IIMWV,267.0,R,10.0,N,A*F
$GPRMC,010806.000,A,4115.6413,S,17316.9291,E,0.06,22.31,031112,,*25
$IIMWV,264.0,R,11.0,N,A*D
$GPRMC,010807.000,A,4115.6413,S,17316.9290,E,0.08,22.85,031112,,*24
$IIMWV,262.0,R,11.0,N,A*B
$GPRMC,010808.000,A,4115.6412,S,17316.9290,E,0.05,52.47,031112,,*2E
$IIMWV,260.0,R,12.0,N,A*A
$GPGGA,010809.000,4115.6412,S,17316.9290,E,1,07,1.4,-22.9,M,18.9,M,,0000*57
$GPGSA,A,3,31,16,20,30,23,29,32,,,,,,2.6,1.4,2.2*3C
$IIMWV,272.0,R,11.0,N,A*A
$GPRMC,010810.000,A,4115.6412,S,17316.9290,E,0.02,109.19,031112,,*14
$IIMWV,274.0,R,10.0,N,A*D
$GPRMC,010811.000,A,4115.6413,S,17316.9290,E,0.02,94.28,031112,,*23
$IIMWV,271.0,R,10.0,N,A*8
$GPRMC,010812.000,A,4115.6413,S,17316.9290,E,0.02,329.07,031112,,*18
$IIMWV,271.0,R,11.0,N,A*9
$GPRMC,010813.000,A,4115.6413,S,17316.9290,E,0.05,327.94,031112,,*1A
$IIMWV,276.0,R,13.0,N,A*C
$GPGGA,010814.000,4115.6413,S,17316.9290,E,1,07,1.4,-22.3,M,18.9,M,,0000*50
$GPGSA,A,3,31,16,20,30,23,29,32,,,,,,2.6,1.4,2.2*3C
$IIMWV,289.0,R,13.0,N,A*C
$GPRMC,010815.000,A,4115.6413,S,17316.9290,E,0.07,333.56,031112,,*15
$IIMWV,277.0,R,12.0,N,A*C
$GPRMC,010816.000,A,4115.6413,S,17316.9290,E,0.05,72.64,031112,,*23
$IIMWV,269.0,R,10.0,N,A*1
$GPRMC,010817.000,A,4115.6413,S,17316.9290,E,0.05,45.51,031112,,*20
$IIMWV,286.0,R,9.0,N,A*38
$GPRMC,010818.000,A,4115.6413,S,17316.9289,E,0.02,24.87,031112,,*2C
$IIMWV,267.0,R,8.0,N,A*36
$GPGGA,010819.000,4115.6413,S,17316.9289,E,1,07,1.4,-22.2,M,18.9,M,,0000*54
$GPGSA,A,3,31,16,20,30,23,29,32,,,,,,2.6,1.4,2.2*3C
$IIMWV,274.0,R,9.0,N,A*35
$GPRMC,010820.000,A,4115.6413,S,17316.9289,E,0.06,61.56,031112,,*2E
$IIMWV,276.0,R,9.0,N,A*37
$GPRMC,010821.000,A,4115.6413,S,17316.9289,E,0.05,35.83,031112,,*25
$IIMWV,271.0,R,9.0,N,A*30
$GPRMC,010822.000,A,4115.6413,S,17316.9289,E,0.05,70.04,031112,,*28
$IIMWV,272.0,R,9.0,N,A*33
$GPRMC,010823.000,A,4115.6412,S,17316.9289,E,0.03,78.81,031112,,*2B
$IIMWV,274.0,R,8.0,N,A*34
$GPGGA,010824.000,4115.6412,S,17316.9289,E,1,07,1.4,-22.4,M,18.9,M,,0000*5D
$GPGSA,A,3,31,16,20,30,23,29,32,,,,,,2.6,1.4,2.2*3C
$IIMWV,268.0,R,7.0,N,A*36
$GPRMC,010825.000,A,4115.6412,S,17316.9289,E,0.07,345.09,031112,,*14
$IIMWV,262.0,R,7.0,N,A*3C
$GPRMC,010826.000,A,4115.6412,S,17316.9288,E,0.07,331.44,031112,,*1C
$IIMWV,266.0,R,7.0,N,A*38
$GPRMC,010827.000,A,4115.6412,S,17316.9288,E,0.03,86.42,031112,,*20
$IIMWV,255.0,R,8.0,N,A*37
$GPRMC,010828.000,A,4115.6412,S,17316.9288,E,0.07,121.95,031112,,*1D
$IIMWV,271.0,R,8.0,N,A*31
$GPGGA,010829.000,4115.6412,S,17316.9288,E,1,07,1.4,-22.2,M,18.9,M,,0000*57
$GPGSA,A,3,31,16,20,30,23,29,32,,,,,,2.6,1.4,2.2*3C
$IIMWV,260.0,R,7.0,N,A*3E
$GPRMC,010830.000,A,4115.6412,S,17316.9288,E,0.06,96.16,031112,,*23
$IIMWV,291.0,R,8.0,N,A*3F
$GPRMC,010831.000,A,4115.6412,S,17316.9288,E,0.07,126.04,031112,,*1A
$IIMWV,273.0,R,7.0,N,A*3C
$GPRMC,010832.000,A,4115.6412,S,17316.9288,E,0.08,126.93,031112,,*18
$IIMWV,272.0,R,9.0,N,A*33
$GPRMC,010833.000,A,4115.6412,S,17316.9288,E,0.03,40.53,031112,,*2F
$IIMWV,277.0,R,11.0,N,A*F
$GPGGA,010834.000,4115.6412,S,17316.9288,E,1,07,1.4,-23.1,M,18.9,M,,0000*59
$GPGSA,A,3,31,16,20,30,23,29,32,,,,,,2.6,1.4,2.2*3C
$IIMWV,277.0,R,12.0,N,A*C
$GPRMC,010835.000,A,4115.6412,S,17316.9287,E,0.04,106.04,031112,,*10
$IIMWV,273.0,R,12.0,N,A*8
$GPRMC,010836.000,A,4115.6412,S,17316.9287,E,0.06,15.73,031112,,*22
$IIMWV,268.0,R,10.0,N,A*0
$GPRMC,010837.000,A,4115.6412,S,17316.9287,E,0.07,338.22,031112,,*1A
$IIMWV,263.0,R,10.0,N,A*B
$GPRMC,010838.000,A,4115.6412,S,17316.9287,E,0.12,338.56,031112,,*12
$IIMWV,270.0,R,10.0,N,A*9
$GPGGA,010839.000,4115.6412,S,17316.9287,E,1,07,1.4,-23.7,M,18.9,M,,0000*5D
$GPGSA,A,3,31,16,20,30,23,29,32,,,,,,2.6,1.4,2.2*3C
$IIMWV,274.0,R,10.0,N,A*D
$GPRMC,010840.000,A,4115.6411,S,17316.9287,E,0.08,22.26,031112,,*2A
$IIMWV,270.0,R,9.0,N,A*31
$GPRMC,010841.000,A,4115.6411,S,17316.9286,E,0.08,343.24,031112,,*1C
$IIMWV,249.0,R,9.0,N,A*3B
$GPRMC,010842.000,A,4115.6411,S,17316.9286,E,0.10,332.72,031112,,*13
$IIMWV,250.0,R,9.0,N,A*33
$GPRMC,010843.000,A,4115.6411,S,17316.9286,E,0.07,321.90,031112,,*1A
$IIMWV,257.0,R,8.0,N,A*35
$GPGGA,010844.000,4115.6411,S,17316.9286,E,1,07,1.4,-23.8,M,18.9,M,,0000*5A
$GPGSA,A,3,31,16,20,30,23,29,32,,,,,,2.6,1.4,2.2*3C
$IIMWV,266.0,R,8.0,N,A*37
$GPRMC,010845.000,A,4115.6411,S,17316.9286,E,0.05,331.90,031112,,*1F
$IIMWV,280.0,R,9.0,N,A*3E
$GPRMC,010846.000,A,4115.6411,S,17316.9286,E,0.04,8.86,031112,,*13
$IIMWV,274.0,R,9.0,N,A*35
$GPRMC,010847.000,A,4115.6411,S,17316.9286,E,0.03,297.02,031112,,*1D
$IIMWV,250.0,R,8.0,N,A*32
$GPRMC,010848.000,A,4115.6411,S,17316.9286,E,0.02,358.88,031112,,*13
$IIMWV,245.0,R,7.0,N,A*39
$GPGGA,010849.000,4115.6411,S,17316.9286,E,1,07,1.4,-23.6,M,18.9,M,,0000*59
$GPGSA,A,3,31,16,20,30,23,29,32,,,,,,2.6,1.4,2.2*3C
$IIMWV,261.0,R,7.0,N,A*3F
$GPRMC,010850.000,A,4115.6411,S,17316.9286,E,0.03,8.47,031112,,*1E
$IIMWV,273.0,R,7.0,N,A*3C
$GPRMC,010851.000,A,4115.6411,S,17316.9286,E,0.01,124.84,031112,,*1D
$IIMWV,282.0,R,8.0,N,A*3D
$GPRMC,010852.000,A,4115.6411,S,17316.9286,E,0.04,62.95,031112,,*28
$IIMWV,273.0,R,6.0,N,A*3D
$GPRMC,010853.000,A,4115.6411,S,17316.9286,E,0.03,47.39,031112,,*2F
$IIMWV,270.0,R,5.0,N,A*3D
$GPGGA,010854.000,4115.6411,S,17316.9286,E,1,07,1.4,-23.4,M,18.9,M,,0000*57
$GPGSA,A,3,31,16,20,30,23,29,32,,,,,,2.6,1.4,2.2*3C
$IIMWV,289.0,R,5.0,N,A*3B
$GPRMC,010855.000,A,4115.6411,S,17316.9286,E,0.03,145.98,031112,,*11
$IIMWV,269.0,R,5.0,N,A*35
$GPRMC,010856.000,A,4115.6412,S,17316.9287,E,0.12,157.56,031112,,*11
$IIMWV,300.0,R,6.0,N,A*38
$GPRMC,010857.000,A,4115.6412,S,17316.9287,E,0.04,345.40,031112,,*11
$IIMWV,274.0,R,6.0,N,A*3A
$GPRMC,010858.000,A,4115.6412,S,17316.9287,E,0.06,141.33,031112,,*1E
$IIMWV,268.0,R,5.0,N,A*34
$GPGGA,010859.000,4115.6412,S,17316.9287,E,1,07,1.4,-23.3,M,18.9,M,,0000*5F
$GPGSA,A,3,31,16,20,30,23,29,32,,,,,,2.6,1.4,2.2*3C
$IIMWV,288.0,R,6.0,N,A*39
$GPRMC,010900.000,A,4115.6412,S,17316.9287,E,0.06,36.52,031112,,*24
$IIMWV,270.0,R,7.0,N,A*3F
$GPRMC,010901.000,A,4115.6412,S,17316.9287,E,0.02,326.20,031112,,*16
$IIMWV,280.0,R,8.0,N,A*3F
$GPRMC,010902.000,A,4115.6412,S,17316.9287,E,0.07,19.97,031112,,*23
$IIMWV,302.0,R,8.0,N,A*34
$GPRMC,010903.000,A,4115.6412,S,17316.9287,E,0.02,313.67,031112,,*11
$IIMWV,270.0,R,7.0,N,A*3F
$GPGGA,010904.000,4115.6411,S,17316.9286,E,1,07,1.4,-23.6,M,18.9,M,,0000*51
$GPGSA,A,3,31,16,20,30,23,29,32,,,,,,2.6,1.4,2.2*3C
$IIMWV,289.0,R,7.0,N,A*39
$GPRMC,010905.000,A,4115.6411,S,17316.9286,E,0.02,342.74,031112,,*13
$IIMWV,259.0,R,8.0,N,A*3B
$GPRMC,010906.000,A,4115.6411,S,17316.9286,E,0.02,26.34,031112,,*25
$IIMWV,247.0,R,8.0,N,A*34
$GPRMC,010907.000,A,4115.6411,S,17316.9286,E,0.03,51.31,031112,,*20
$IIMWV,240.0,R,8.0,N,A*33
$GPRMC,010908.000,A,4115.6411,S,17316.9286,E,0.00,95.55,031112,,*26
$IIMWV,256.0,R,7.0,N,A*3B
$GPGGA,010909.000,4115.6412,S,17316.9286,E,1,07,1.4,-23.7,M,18.9,M,,0000*5E
$GPGSA,A,3,31,16,20,30,23,29,32,,,,,,2.6,1.4,2.2*3C
$IIMWV,265.0,R,7.0,N,A*3B
$GPRMC,010910.000,A,4115.6412,S,17316.9286,E,0.05,89.76,031112,,*25
$IIMWV,257.0,R,8.0,N,A*35
$GPRMC,010911.000,A,4115.6412,S,17316.9286,E,0.04,188.19,031112,,*1C
$IIMWV,266.0,R,8.0,N,A*37
$GPRMC,010912.000,A,4115.6412,S,17316.9286,E,0.02,133.15,031112,,*15
$IIMWV,267.0,R,9.0,N,A*37
$GPRMC,010913.000,A,4115.6412,S,17316.9287,E,0.01,298.51,031112,,*14
$IIMWV,263.0,R,9.0,N,A*33
$GPGGA,010914.000,4115.6412,S,17316.9287,E,1,07,1.4,-23.6,M,18.9,M,,0000*52
$GPGSA,A,3,31,16,20,30,23,29,32,,,,,,2.6,1.4,2.2*3C
$IIMWV,248.0,R,9.0,N,A*3A
$GPRMC,010915.000,A,4115.6412,S,17316.9287,E,0.05,175.25,031112,,*15
$IIMWV,250.0,R,9.0,N,A*33
$GPRMC,010916.000,A,4115.6412,S,17316.9287,E,0.04,49.51,031112,,*2A
$IIMWV,264.0,R,9.0,N,A*34
$GPRMC,010917.000,A,4115.6412,S,17316.9287,E,0.08,343.91,031112,,*12
$IIMWV,265.0,R,8.0,N,A*34
$GPRMC,010918.000,A,4115.6412,S,17316.9287,E,0.09,332.90,031112,,*1B
$IIMWV,273.0,R,7.0,N,A*3C
$GPGGA,010919.000,4115.6412,S,17316.9287,E,1,07,1.4,-23.0,M,18.9,M,,0000*59
$GPGSA,A,3,31,16,20,30,23,29,32,,,,,,2.6,1.4,2.2*3C
$IIMWV,270.0,R,7.0,N,A*3F
$GPRMC,010920.000,A,4115.6412,S,17316.9286,E,0.04,39.48,031112,,*21
$IIMWV,265.0,R,6.0,N,A*3A
$GPRMC,010921.000,A,4115.6412,S,17316.9286,E,0.02,1.48,031112,,*1D
$IIMWV,279.0,R,6.0,N,A*37
$GPRMC,010922.000,A,4115.6412,S,17316.9286,E,0.07,68.74,031112,,*2B
$IIMWV,284.0,R,6.0,N,A*35
$GPRMC,010923.000,A,4115.6412,S,17316.9287,E,0.03,9.17,031112,,*1D
$IIMWV,266.0,R,5.0,N,A*3A
$GPGGA,010924.000,4115.6412,S,17316.9287,E,1,07,1.4,-22.5,M,18.9,M,,0000*53
$GPGSA,A,3,31,16,20,30,23,29,32,,,,,,2.6,1.4,2.2*3C
$IIMWV,274.0,R,5.0,N,A*39
$GPRMC,010925.000,A,4115.6412,S,17316.9286,E,0.05,111.48,031112,,*1E
$IIMWV,267.0,R,5.0,N,A*3B
$GPRMC,010926.000,A,4115.6412,S,17316.9286,E,0.04,119.95,031112,,*14
$IIMWV,273.0,R,8.0,N,A*33
$GPRMC,010927.000,A,4115.6411,S,17316.9286,E,0.07,79.56,031112,,*2D
$IIMWV,275.0,R,10.0,N,A*C
$GPRMC,010928.000,A,4115.6411,S,17316.9286,E,0.06,13.65,031112,,*2F
$IIMWV,267.0,R,10.0,N,A*F
$GPGGA,010929.000,4115.6411,S,17316.9286,E,1,07,1.4,-22.8,M,18.9,M,,0000*51
$GPGSA,A,3,31,16,20,30,23,29,32,,,,,,2.6,1.4,2.2*3C
$IIMWV,263.0,R,11.0,N,A*A
$GPRMC,010930.000,A,4115.6411,S,17316.9286,E,0.06,347.59,031112,,*1B
$IIMWV,270.0,R,13.0,N,A*A
$GPRMC,010931.000,A,4115.6411,S,17316.9286,E,0.09,25.00,031112,,*2E
$IIMWV,261.0,R,13.0,N,A*A
$GPRMC,010932.000,A,4115.6411,S,17316.9286,E,0.06,7.78,031112,,*1D
$IIMWV,250.0,R,12.0,N,A*9
$GPRMC,010933.000,A,4115.6410,S,17316.9286,E,0.04,24.25,031112,,*26
$IIMWV,257.0,R,11.0,N,A*D
$GPGGA,010934.000,4115.6410,S,17316.9286,E,1,07,1.4,-23.0,M,18.9,M,,0000*55
$GPGSA,A,3,31,16,20,30,23,29,32,,,,,,2.6,1.4,2.2*3C
$IIMWV,269.0,R,10.0,N,A*1
$GPRMC,010935.000,A,4115.6410,S,17316.9286,E,0.02,20.54,031112,,*24
$IIMWV,279.0,R,11.0,N,A*1
$GPRMC,010936.000,A,4115.6410,S,17316.9286,E,0.02,2.07,031112,,*11
$IIMWV,271.0,R,11.0,N,A*9
$GPRMC,010937.000,A,4115.6410,S,17316.9286,E,0.03,48.71,031112,,*2E
$IIMWV,262.0,R,12.0,N,A*8
$GPRMC,010938.000,A,4115.6410,S,17316.9286,E,0.05,75.49,031112,,*22
$IIMWV,257.0,R,12.0,N,A*E
$GPGGA,010939.000,4115.6410,S,17316.9286,E,1,07,1.4,-23.4,M,18.9,M,,0000*5C
$GPGSA,A,3,31,16,20,30,23,29,32,,,,,,2.6,1.4,2.2*3C
$IIMWV,256.0,R,12.0,N,A*F
$GPRMC,010940.000,A,4115.6410,S,17316.9286,E,0.04,131.43,031112,,*17
$IIMWV,263.0,R,12.0,N,A*9
$GPRMC,010941.000,A,4115.6410,S,17316.9286,E,0.08,139.66,031112,,*15
$IIMWV,265.0,R,12.0,N,A*F
$GPRMC,010942.000,A,4115.6410,S,17316.9286,E,0.07,139.14,031112,,*1C
$IIMWV,247.0,R,9.0,N,A*35
$GPRMC,010943.000,A,4115.6410,S,17316.9287,E,0.08,71.55,031112,,*2B
$IIMWV,276.0,R,9.0,N,A*37
$GPGGA,010944.000,4115.6410,S,17316.9287,E,1,07,1.4,-24.0,M,18.9,M,,0000*54
$GPGSA,A,3,31,16,20,30,23,29,32,,,,,,2.6,1.4,2.2*3C
$IIMWV,260.0,R,9.0,N,A*30
$GPRMC,010945.000,A,4115.6411,S,17316.9287,E,0.05,213.81,031112,,*1E
$IIMWV,259.0,R,11.0,N,A*3
$GPRMC,010946.000,A,4115.6411,S,17316.9287,E,0.03,58.73,031112,,*2B
$IIMWV,259.0,R,11.0,N,A*3
$GPRMC,010947.000,A,4115.6411,S,17316.9287,E,0.12,320.97,031112,,*1C
$IIMWV,258.0,R,12.0,N,A*1
$GPRMC,010948.000,A,4115.6410,S,17316.9287,E,0.10,324.88,031112,,*1A
$IIMWV,267.0,R,11.0,N,A*E
$GPGGA,010949.000,4115.6410,S,17316.9287,E,1,07,1.4,-23.4,M,18.9,M,,0000*5A
$GPGSA,A,3,31,16,20,30,23,29,32,,,,,,2.6,1.4,2.2*3C
$IIMWV,269.0,R,10.0,N,A*1
$GPRMC,010950.000,A,4115.6410,S,17316.9287,E,0.04,61.08,031112,,*2C
$IIMWV,264.0,R,9.0,N,A*34
$GPRMC,010951.000,A,4115.6410,S,17316.9287,E,0.06,92.57,031112,,*29
$IIMWV,271.0,R,9.0,N,A*30
$GPRMC,010952.000,A,4115.6410,S,17316.9287,E,0.02,74.30,031112,,*27
$IIMWV,273.0,R,8.0,N,A*33
$GPRMC,010953.000,A,4115.6410,S,17316.9287,E,0.06,67.87,031112,,*2C
$IIMWV,271.0,R,7.0,N,A*3E
$GPGGA,010954.000,4115.6410,S,17316.9287,E,1,07,1.4,-23.8,M,18.9,M,,0000*5A
$GPGSA,A,3,31,16,20,30,23,29,32,,,,,,2.6,1.4,2.2*3C
$IIMWV,267.0,R,7.0,N,A*39
$GPRMC,010955.000,A,4115.6410,S,17316.9287,E,0.25,74.00,031112,,*26
$IIMWV,273.0,R,9.0,N,A*32
$GPRMC,010956.000,A,4115.6410,S,17316.9288,E,0.11,64.44,031112,,*2C
$IIMWV,267.0,R,9.0,N,A*37
$GPRMC,010957.000,A,4115.6410,S,17316.9288,E,0.06,51.61,031112,,*2A
$IIMWV,283.0,R,9.0,N,A*3D
$GPRMC,010958.000,A,4115.6410,S,17316.9288,E,0.03,4.05,031112,,*12
$IIMWV,283.0,R,8.0,N,A*3C
$GPGGA,010959.000,4115.6410,S,17316.9288,E,1,07,1.4,-23.8,M,18.9,M,,0000*58
$GPGSA,A,3,31,16,20,30,23,29,32,,,,,,2.6,1.4,2.2*3C
$IIMWV,277.0,R,8.0,N,A*37
$GPRMC,011000.000,A,4115.6410,S,17316.9288,E,0.09,59.50,031112,,*25
$IIMWV,272.0,R,7.0,N,A*3D
$GPRMC,011001.000,A,4115.6410,S,17316.9289,E,0.11,68.89,031112,,*2A
$IIMWV,279.0,R,6.0,N,A*37
$GPRMC,011002.000,A,4115.6410,S,17316.9288,E,0.06,271.50,031112,,*10
$IIMWV,256.0,R,6.0,N,A*3A
$GPRMC,011003.000,A,4115.6410,S,17316.9288,E,0.07,271.45,031112,,*14
$IIMWV,285.0,R,6.0,N,A*34
$GPGGA,011004.000,4115.6410,S,17316.9288,E,1,07,1.4,-24.1,M,18.9,M,,0000*56
$GPGSA,A,3,31,16,20,30,23,29,32,,,,,,2.6,1.4,2.2*3C
$IIMWV,280.0,R,6.0,N,A*31
$GPRMC,011005.000,A,4115.6410,S,17316.9288,E,0.06,293.23,031112,,*1F
$IIMWV,289.0,R,8.0,N,A*36
$GPRMC,011006.000,A,4115.6410,S,17316.9288,E,0.16,51.84,031112,,*2C
$IIMWV,263.0,R,10.0,N,A*B
$GPRMC,011007.000,A,4115.6409,S,17316.9288,E,0.06,333.82,031112,,*15
$IIMWV,271.0,R,11.0,N,A*9
$GPRMC,011008.000,A,4115.6409,S,17316.9288,E,0.10,301.08,031112,,*1E
$IIMWV,263.0,R,10.0,N,A*B
$GPGGA,011009.000,4115.6409,S,17316.9288,E,1,07,1.4,-24.2,M,18.9,M,,0000*50
$GPGSA,A,3,31,16,20,30,23,29,32,,,,,,2.6,1.4,2.2*3C
$IIMWV,266.0,R,12.0,N,A*C
$GPRMC,011010.000,A,4115.6409,S,17316.9288,E,0.08,299.49,031112,,*1B
$IIMWV,272.0,R,13.0,N,A*8
$GPRMC,011011.000,A,4115.6409,S,17316.9288,E,0.12,286.69,031112,,*1D
$IIMWV,268.0,R,12.0,N,A*2
$GPRMC,011012.000,A,4115.6409,S,17316.9288,E,0.11,281.49,031112,,*18
$IIMWV,272.0,R,11.0,N,A*A
$GPRMC,011013.000,A,4115.6409,S,17316.9287,E,0.08,291.30,031112,,*11
$IIMWV,278.0,R,11.0,N,A*0
$GPGGA,011014.000,4115.6409,S,17316.9288,E,1,07,1.4,-24.3,M,18.9,M,,0000*5D
$GPGSA,A,3,31,16,20,30,23,29,32,,,,,,2.6,1.4,2.2*3C
$IIMWV,276.0,R,11.0,N,A*E
$GPRMC,011015.000,A,4115.6409,S,17316.9288,E,0.09,265.25,031112,,*16
$IIMWV,273.0,R,12.0,N,A*8
$GPRMC,011016.000,A,4115.6409,S,17316.9288,E,0.10,278.93,031112,,*1C
$IIMWV,279.0,R,12.0,N,A*2
$GPRMC,011017.000,A,4115.6409,S,17316.9288,E,0.04,25.47,031112,,*2B
$IIMWV,270.0,R,11.0,N,A*8
$GPRMC,011018.000,A,4115.6409,S,17316.9288,E,0.01,17.06,031112,,*25
$IIMWV,264.0,R,10.0,N,A*C
$GPGGA,011019.000,4115.6409,S,17316.9288,E,1,07,1.4,-24.2,M,18.9,M,,0000*51
$GPGSA,A,3,31,16,20,30,23,29,32,,,,,,2.6,1.4,2.2*3C
$IIMWV,269.0,R,10.0,N,A*1
$GPRMC,011020.000,A,4115.6409,S,17316.9289,E,0.05,66.24,031112,,*2D
$IIMWV,265.0,R,12.0,N,A*F
$GPRMC,011021.000,A,4115.6409,S,17316.9289,E,0.04,45.42,031112,,*2C
$IIMWV,284.0,R,11.0,N,A*3
$GPRMC,011022.000,A,4115.6409,S,17316.9289,E,0.06,5.53,031112,,*19
$IIMWV,278.0,R,12.0,N,A*3
$GPRMC,011023.000,A,4115.6409,S,17316.9290,E,0.11,145.90,031112,,*1C
$IIMWV,273.0,R,14.0,N,A*E
$GPGGA,011024.000,4115.6409,S,17316.9290,E,1,07,1.4,-24.2,M,18.9,M,,0000*56
$GPGSA,A,3,31,16,20,30,23,29,32,,,,,,2.6,1.4,2.2*3C
$IIMWV,275.0,R,15.0,N,A*9
$GPRMC,011025.000,A,4115.6409,S,17316.9291,E,0.15,134.09,031112,,*19
$IIMWV,272.0,R,14.0,N,A*F
$GPRMC,011026.000,A,4115.6409,S,17316.9291,E,0.03,130.76,031112,,*11
$IIMWV,276.0,R,14.0,N,A*B
$GPRMC,011027.000,A,4115.6409,S,17316.9291,E,0.02,255.37,031112,,*14
$IIMWV,274.0,R,13.0,N,A*E
$GPRMC,011028.000,A,4115.6410,S,17316.9292,E,0.07,11.51,031112,,*27
$IIMWV,271.0,R,14.0,N,A*C
$GPGGA,011029.000,4115.6410,S,17316.9292,E,1,07,1.4,-23.9,M,18.9,M,,0000*5D
$GPGSA,A,3,31,16,20,30,23,29,32,,,,,,2.6,1.4,2.2*3C
$IIMWV,264.0,R,13.0,N,A*F
$GPRMC,011030.000,A,4115.6409,S,17316.9292,E,0.04,4.38,031112,,*1E
$IIMWV,271.0,R,13.0,N,A*B
$GPRMC,011031.000,A,4115.6409,S,17316.9292,E,0.06,350.30,031112,,*17
$IIMWV,275.0,R,12.0,N,A*E
$GPRMC,011032.000,A,4115.6409,S,17316.9292,E,0.10,60.70,031112,,*27
$IIMWV,275.0,R,12.0,N,A*E
$GPRMC,011033.000,A,4115.6409,S,17316.9292,E,0.04,351.02,031112,,*17
$IIMWV,272.0,R,12.0,N,A*9
$GPGGA,011034.000,4115.6409,S,17316.9292,E,1,07,1.4,-23.6,M,18.9,M,,0000*56
$GPGSA,A,3,31,16,20,30,23,29,32,,,,,,2.6,1.4,2.2*3C
$IIMWV,273.0,R,13.0,N,A*9
$GPRMC,011035.000,A,4115.6409,S,17316.9292,E,0.07,0.38,031112,,*1C
$IIMWV,286.0,R,12.0,N,A*2
$GPRMC,011036.000,A,4115.6409,S,17316.9292,E,0.09,12.05,031112,,*2C
$IIMWV,280.0,R,11.0,N,A*7
$GPRMC,011037.000,A,4115.6409,S,17316.9292,E,0.09,342.50,031112,,*1B
$IIMWV,276.0,R,11.0,N,A*E
$GPRMC,011038.000,A,4115.6409,S,17316.9292,E,0.09,357.25,031112,,*12
$IIMWV,283.0,R,11.0,N,A*4
$GPGGA,011039.000,4115.6409,S,17316.9292,E,1,07,1.4,-23.3,M,18.9,M,,0000*5E
$GPGSA,A,3,31,16,20,30,23,29,32,,,,,,2.6,1.4,2.2*3C
$IIMWV,273.0,R,11.0,N,A*B
$GPRMC,011040.000,A,4115.6409,S,17316.9292,E,0.11,66.11,031112,,*22
$IIMWV,277.0,R,10.0,N,A*E
$GPRMC,011041.000,A,4115.6409,S,17316.9293,E,0.06,31.19,031112,,*2E
$IIMWV,286.0,R,9.0,N,A*38
$GPRMC,011042.000,A,4115.6409,S,17316.9293,E,0.01,12.37,031112,,*27
$IIMWV,273.0,R,9.0,N,A*32
$GPRMC,011043.000,A,4115.6409,S,17316.9293,E,0.03,39.93,031112,,*23
$IIMWV,278.0,R,10.0,N,A*1
$GPGGA,011044.000,4115.6409,S,17316.9293,E,1,07,1.4,-22.8,M,18.9,M,,0000*5F
$GPGSA,A,3,31,16,20,30,23,29,32,,,,,,2.6,1.4,2.2*3C
$IIMWV,281.0,R,10.0,N,A*7
$GPRMC,011045.000,A,4115.6409,S,17316.9293,E,0.15,85.33,031112,,*2F
$IIMWV,287.0,R,10.0,N,A*1
$GPRMC,011046.000,A,4115.6409,S,17316.9294,E,0.26,81.30,031112,,*2C
$IIMWV,283.0,R,10.0,N,A*5
$GPRMC,011047.000,A,4115.6409,S,17316.9295,E,0.29,82.42,031112,,*25
$IIMWV,272.0,R,9.0,N,A*33
$GPRMC,011048.000,A,4115.6409,S,17316.9295,E,0.13,83.00,031112,,*24
$IIMWV,278.0,R,9.0,N,A*39
$GPGGA,011049.000,4115.6409,S,17316.9295,E,1,07,1.4,-22.5,M,18.9,M,,0000*59
$GPGSA,A,3,31,16,20,30,23,29,32,,,,,,2.6,1.4,2.2*3C
$IIMWV,293.0,R,9.0,N,A*3C
$GPRMC,011050.000,A,4115.6409,S,17316.9294,E,0.15,252.21,031112,,*17
$IIMWV,277.0,R,8.0,N,A*37
$GPRMC,011051.000,A,4115.6409,S,17316.9294,E,0.15,244.60,031112,,*14
$IIMWV,283.0,R,7.0,N,A*33
$GPRMC,011052.000,A,4115.6410,S,17316.9294,E,0.19,242.50,031112,,*16
$IIMWV,275.0,R,7.0,N,A*3A
$GPRMC,011053.000,A,4115.6410,S,17316.9293,E,0.14,248.72,031112,,*17
$IIMWV,282.0,R,7.0,N,A*32
$GPGGA,011054.000,4115.6410,S,17316.9293,E,1,07,1.4,-22.1,M,18.9,M,,0000*5F
$GPGSA,A,3,31,16,20,30,23,29,32,,,,,,2.6,1.4,2.2*3C
$IIMWV,292.0,R,6.0,N,A*32
$GPRMC,011055.000,A,4115.6410,S,17316.9293,E,0.04,257.57,031112,,*19
$IIMWV,293.0,R,5.0,N,A*30
$GPRMC,011056.000,A,4115.6410,S,17316.9294,E,0.19,84.40,031112,,*2B
$IIMWV,268.0,R,5.0,N,A*34
$GPRMC,011057.000,A,4115.6410,S,17316.9294,E,0.06,282.34,031112,,*13
$IIMWV,274.0,R,4.0,N,A*38
$GPRMC,011058.000,A,4115.6410,S,17316.9294,E,0.02,189.14,031112,,*12
$IIMWV,267.0,R,5.0,N,A*3B
$GPGGA,011059.000,4115.6410,S,17316.9294,E,1,07,1.4,-20.9,M,18.9,M,,0000*5F
$GPGSA,A,3,31,16,20,30,23,29,32,,,,,,2.6,1.4,2.2*3C
$IIMWV,254.0,R,5.0,N,A*3B
$GPRMC,011100.000,A,4115.6410,S,17316.9295,E,0.02,90.55,031112,,*23
$IIMWV,262.0,R,5.0,N,A*3E
$GPRMC,011101.000,A,4115.6410,S,17316.9295,E,0.12,233.83,031112,,*13
$IIMWV,319.0,R,4.0,N,A*32
$GPRMC,011102.000,A,4115.6410,S,17316.9295,E,0.19,81.43,031112,,*2C
$IIMWV,307.0,R,3.0,N,A*3A
$GPRMC,011103.000,A,4115.6410,S,17316.9295,E,0.07,88.56,031112,,*2F
$IIMWV,318.0,R,2.0,N,A*35
$GPGGA,011104.000,4115.6410,S,17316.9295,E,1,07,1.4,-18.0,M,18.9,M,,0000*55
$GPGSA,A,3,31,16,20,30,23,29,32,,,,,,2.6,1.4,2.2*3C
$IIMWV,278.0,R,2.0,N,A*32
$GPRMC,011105.000,A,4115.6410,S,17316.9295,E,0.27,76.87,031112,,*26
$IIMWV,294.0,R,2.0,N,A*30
$GPRMC,011106.000,A,4115.6409,S,17316.9296,E,0.42,68.01,031112,,*2C
$IIMWV,328.0,R,2.0,N,A*36
$GPRMC,011107.000,A,4115.6409,S,17316.9297,E,0.20,75.54,031112,,*24
$IIMWV,280.0,R,4.0,N,A*33
$GPRMC,011108.000,A,4115.6409,S,17316.9298,E,0.30,50.42,031112,,*25
$IIMWV,313.0,R,5.0,N,A*39
$GPGGA,011109.000,4115.6408,S,17316.9298,E,1,07,1.4,-17.9,M,18.9,M,,0000*5A
$GPGSA,A,3,31,16,20,30,23,29,32,,,,,,2.6,1.4,2.2*3C
$IIMWV,292.0,R,7.0,N,A*33
$GPRMC,011110.000,A,4115.6408,S,17316.9298,E,0.08,263.88,031112,,*12
$IIMWV,298.0,R,9.0,N,A*37
$GPRMC,011111.000,A,4115.6408,S,17316.9297,E,0.19,272.19,031112,,*14
$IIMWV,307.0,R,10.0,N,A*8
$GPRMC,011112.000,A,4115.6408,S,17316.9297,E,0.07,52.22,031112,,*20
$IIMWV,276.0,R,9.0,N,A*37
$GPRMC,011113.000,A,4115.6408,S,17316.9297,E,0.11,40.64,031112,,*27
$IIMWV,288.0,R,7.0,N,A*38
$GPGGA,011114.000,4115.6408,S,17316.9297,E,1,07,1.4,-18.5,M,18.9,M,,0000*5A
$GPGSA,A,3,31,16,20,30,23,29,32,,,,,,2.6,1.4,2.2*3C
$IIMWV,280.0,R,7.0,N,A*30
$GPRMC,011115.000,A,4115.6407,S,17316.9296,E,0.11,29.16,031112,,*25
$IIMWV,274.0,R,6.0,N,A*3A
$GPRMC,011116.000,A,4115.6407,S,17316.9296,E,0.08,53.94,031112,,*29
$IIMWV,288.0,R,7.0,N,A*38
$GPRMC,011117.000,A,4115.6407,S,17316.9296,E,0.08,262.94,031112,,*18
$IIMWV,293.0,R,7.0,N,A*32
