$HCHDG,203.6,0.0,E,12.6,W*62
$WIMWV,251.4,R,3.1,N,A*23
$GPVTG,225.1,T,237.7,M,0.1,N,0.2,K,A*25
$GPGLL,4100.7075,S,07329.5199,E,192945,A,A*5E
$HCHDG,204.4,0.0,E,12.6,W*67
$GPRMC,192945,A,4100.7075,S,07329.5199,E,0.1,225.1,300510,12.6,W,A*27
$WIMWV,249.8,R,3.2,N,A*25
$HCHDG,204.4,0.0,E,12.6,W*67
$GPGLL,4100.7075,S,07329.5199,E,192945,A,A*5E
$WIMWV,246.7,R,3.1,N,A*26
$GPRMC,192946,A,4100.7075,S,07329.5199,E,0.0,225.2,300510,12.6,W,A*26
$HCHDG,205.5,0.0,E,12.6,W*67
$GPVTG,225.2,T,237.8,M,0.0,N,0.0,K,A*2A
$WIMWV,245.8,R,2.9,N,A*23
$GPGLL,4100.7075,S,07329.5199,E,192946,A,A*5D
$HCHDG,205.1,0.0,E,12.6,W*63
$GPRMC,192947,A,4100.7075,S,07329.5199,E,0.1,225.1,300510,12.6,W,A*25
$WIMWV,246.6,R,2.9,N,A*2E
$HCHDG,205.3,0.0,E,12.6,W*61
$GPGLL,4100.7075,S,07329.5199,E,192947,A,A*5C
$WIMWV,246.5,R,2.8,N,A*2C
$GPRMC,192947,A,4100.7075,S,07329.5199,E,0.1,225.1,300510,12.6,W,A*25
$HCHDG,205.4,0.0,E,12.6,W*66
$WIMWV,245.3,R,2.9,N,A*28
$GPVTG,224.9,T,237.5,M,0.0,N,0.0,K,A*2D
$GPGLL,4100.7075,S,07329.5199,E,192948,A,A*53
$HCHDG,205.4,0.0,E,12.6,W*66
$WIMWV,246.0,R,2.9,N,A*28
$GPRMC,192948,A,4100.7075,S,07329.5199,E,0.0,224.9,300510,12.6,W,A*22
$HCHDG,206.4,0.0,E,12.6,W*65
$WIMWV,247.5,R,3.0,N,A*24
$GPGLL,4100.7079,S,07329.5199,E,192949,A,A*5E
$GPRMC,192949,A,4100.7079,S,07329.5199,E,0.0,224.9,300510,12.6,W,A*2F
$HCHDG,206.5,0.0,E,12.6,W*64
$WIMWV,249.7,R,3.1,N,A*29
$GPVTG,224.9,T,237.5,M,0.0,N,0.0,K,A*2D
$GPGLL,4100.7079,S,07329.5199,E,192950,A,A*56
$HCHDG,206.3,0.0,E,12.6,W*62
$GPRMC,192950,A,4100.7079,S,07329.5199,E,0.0,224.9,300510,12.6,W,A*27
$WIMWV,254.2,R,3.0,N,A*21
$HCHDG,206.7,0.0,E,12.6,W*66
$GPGLL,4100.7079,S,07329.5199,E,192950,A,A*56
$WIMWV,257.6,R,3.0,N,A*26
$GPRMC,192951,A,4100.7079,S,07329.5199,E,0.1,224.6,300510,12.6,W,A*28
$HCHDG,206.7,0.0,E,12.6,W*66
$GPVTG,224.6,T,237.2,M,0.1,N,0.2,K,A*26
$WIMWV,261.7,R,3.2,N,A*20
$GPGLL,4100.7079,S,07329.5199,E,192951,A,A*57
$HCHDG,206.0,0.0,E,12.6,W*61
$GPRMC,192951,A,4100.7079,S,07329.5199,E,0.1,224.6,300510,12.6,W,A*28
$WIMWV,262.9,R,3.2,N,A*2D
$HCHDG,205.9,0.0,E,12.6,W*6B
$GPGLL,4100.7079,S,07329.5199,E,192952,A,A*54
$WIMWV,264.5,R,3.2,N,A*27
$GPRMC,192952,A,4100.7079,S,07329.5199,E,0.0,224.9,300510,12.6,W,A*25
$HCHDG,206.1,0.0,E,12.6,W*60
$WIMWV,264.1,R,3.2,N,A*23
$GPVTG,224.3,T,236.9,M,0.0,N,0.0,K,A*2A
$GPGLL,4100.7079,S,07329.5199,E,192953,A,A*55
$HCHDG,205.6,0.0,E,12.6,W*64
$GPRMC,192953,A,4100.7079,S,07329.5199,E,0.0,224.3,300510,12.6,W,A*2E
$WIMWV,270.0,R,3.1,N,A*24
$HCHDG,205.9,0.0,E,12.6,W*6B
$GPGLL,4100.7079,S,07329.5199,E,192953,A,A*55
$GPRMC,192954,A,4100.7079,S,07329.5199,E,0.0,223.9,300510,12.6,W,A*24
$WIMWV,270.0,R,2.8,N,A*2C
$HCHDG,206.4,0.0,E,12.6,W*65
$GPVTG,223.9,T,236.5,M,0.0,N,0.0,K,A*2B
$GPGLL,4100.7079,S,07329.5199,E,192954,A,A*52
$WIMWV,274.4,R,2.6,N,A*22
$GPRMC,192954,A,4100.7079,S,07329.5199,E,0.0,223.9,300510,12.6,W,A*24
$HCHDG,206.0,0.0,E,12.6,W*61
$WIMWV,275.7,R,2.5,N,A*23
$GPGLL,4100.7079,S,07329.5199,E,192955,A,A*53
$GPRMC,192955,A,4100.7079,S,07329.5199,E,0.0,223.8,300510,12.6,W,A*24
$HCHDG,205.5,0.0,E,12.6,W*67
$WIMWV,277.4,R,2.4,N,A*23
$GPVTG,223.4,T,236.0,M,0.1,N,0.2,K,A*20
$GPGLL,4100.7079,S,07329.5199,E,192956,A,A*50
$HCHDG,205.3,0.0,E,12.6,W*61
$GPRMC,192956,A,4100.7079,S,07329.5199,E,0.1,223.4,300510,12.6,W,A*2A
$WIMWV,270.0,R,2.2,N,A*26
$HCHDG,205.7,0.0,E,12.6,W*65
$GPGLL,4100.7079,S,07329.5199,E,192956,A,A*50
$GPRMC,192957,A,4100.7079,S,07329.5199,E,0.0,224.0,300510,12.6,W,A*29
$WIMWV,270.0,R,2.1,N,A*25
$HCHDG,206.0,0.0,E,12.6,W*61
$GPVTG,224.0,T,236.6,M,0.0,N,0.0,K,A*26
$GPGLL,4100.7079,S,07329.5199,E,192957,A,A*51
$WIMWV,265.9,R,2.1,N,A*28
$GPRMC,192958,A,4100.7083,S,07329.5199,E,0.0,223.9,300510,12.6,W,A*2D
$HCHDG,205.6,0.0,E,12.6,W*64
$WIMWV,260.6,R,2.0,N,A*23
$GPGLL,4100.7083,S,07329.5199,E,192958,A,A*5B
$HCHDG,205.2,0.0,E,12.6,W*60
$GPRMC,192958,A,4100.7083,S,07329.5199,E,0.0,223.9,300510,12.6,W,A*2D
$WIMWV,257.5,R,2.0,N,A*24
$HCHDG,204.9,0.0,E,12.6,W*6A
$GPVTG,223.7,T,236.3,M,0.0,N,0.0,K,A*23
$GPGLL,4100.7083,S,07329.5199,E,192959,A,A*5A
$WIMWV,255.5,R,2.1,N,A*27
$GPRMC,192959,A,4100.7083,S,07329.5199,E,0.0,223.7,300510,12.6,W,A*22
$HCHDG,205.5,0.0,E,12.6,W*67
$WIMWV,253.0,R,2.2,N,A*27
$GPGLL,4100.7083,S,07329.5199,E,193000,A,A*5E
$HCHDG,206.1,0.0,E,12.6,W*60
$GPRMC,193000,A,4100.7083,S,07329.5199,E,0.0,223.3,300510,12.6,W,A*22
$WIMWV,252.6,R,2.3,N,A*21
$GPVTG,223.3,T,235.9,M,0.0,N,0.0,K,A*2E
$HCHDG,206.3,0.0,E,12.6,W*62
$GPGLL,4100.7083,S,07329.5199,E,193001,A,A*5F
$WIMWV,251.4,R,2.5,N,A*26
$GPRMC,193001,A,4100.7083,S,07329.5199,E,0.0,223.2,300510,12.6,W,A*22
$HCHDG,205.9,0.0,E,12.6,W*6B
$WIMWV,251.5,R,2.7,N,A*25
$GPGLL,4100.7083,S,07329.5199,E,193001,A,A*5F
$HCHDG,205.7,0.0,E,12.6,W*65
$GPRMC,193002,A,4100.7083,S,07329.5199,E,0.0,223.1,300510,12.6,W,A*22
$WIMWV,252.5,R,3.0,N,A*20
$GPVTG,223.1,T,235.7,M,0.0,N,0.0,K,A*22
$HCHDG,206.2,0.0,E,12.6,W*63
$GPGLL,4100.7083,S,07329.5199,E,193002,A,A*5C
$WIMWV,252.3,R,3.2,N,A*24
$GPRMC,193002,A,4100.7083,S,07329.5199,E,0.0,223.1,300510,12.6,W,A*22
$HCHDG,206.1,0.0,E,12.6,W*60
$WIMWV,252.2,R,3.2,N,A*25
$GPGLL,4100.7095,S,07329.5199,E,193003,A,A*5A
$GPRMC,193003,A,4100.7095,S,07329.5199,E,0.0,223.2,300510,12.6,W,A*27
$HCHDG,205.8,0.0,E,12.6,W*6A
$WIMWV,251.7,R,3.3,N,A*22
$GPVTG,223.2,T,235.8,M,0.0,N,0.0,K,A*2E
$GPGLL,4100.7095,S,07329.5199,E,193004,A,A*5D
$HCHDG,205.6,0.0,E,12.6,W*64
$GPRMC,193004,A,4100.7095,S,07329.5199,E,0.0,223.0,300510,12.6,W,A*22
$WIMWV,251.1,R,3.4,N,A*23
$HCHDG,206.1,0.0,E,12.6,W*60
$GPGLL,4100.7095,S,07329.5199,E,193004,A,A*5D
$WIMWV,251.0,R,3.4,N,A*22
$GPRMC,193005,A,4100.7095,S,07329.5199,E,0.0,223.0,300510,12.6,W,A*23
$HCHDG,207.3,0.0,E,12.6,W*63
$WIMWV,250.8,R,3.5,N,A*2A
$GPVTG,223.0,T,235.6,M,0.0,N,0.0,K,A*22
$GPGLL,4100.7095,S,07329.5199,E,193005,A,A*5C
$HCHDG,208.0,0.0,E,12.6,W*6F
$GPRMC,193006,A,4100.7095,S,07329.5199,E,0.0,223.0,300510,12.6,W,A*20
$WIMWV,250.7,R,3.8,N,A*28
$HCHDG,207.2,0.0,E,12.6,W*62
$GPGLL,4100.7095,S,07329.5199,E,193006,A,A*5F
$GPRMC,193006,A,4100.7095,S,07329.5199,E,0.0,223.0,300510,12.6,W,A*20
$WIMWV,253.5,R,3.9,N,A*28
$HCHDG,200.2,0.0,E,12.6,W*65
$GPVTG,224.2,T,236.8,M,0.1,N,0.2,K,A*29
$GPGLL,4100.7095,S,07329.5199,E,193007,A,A*5E
$WIMWV,254.8,R,3.8,N,A*23
$GPRMC,193007,A,4100.7095,S,07329.5199,E,0.1,224.2,300510,12.6,W,A*25
$HCHDG,197.1,0.0,E,12.6,W*6B
$WIMWV,255.9,R,3.8,N,A*23
$GPGLL,4100.7095,S,07329.5199,E,193008,A,A*51
$GPRMC,193008,A,4100.7095,S,07329.5199,E,0.2,221.4,300510,12.6,W,A*2A
$HCHDG,217.9,0.0,E,12.6,W*68
$WIMWV,257.0,R,3.7,N,A*27
$GPVTG,221.4,T,234.0,M,0.2,N,0.4,K,A*25
$GPGLL,4100.7095,S,07329.5199,E,193008,A,A*51
$HCHDG,226.3,0.0,E,12.6,W*60
$WIMWV,257.2,R,3.7,N,A*25
$GPRMC,193009,A,4100.7095,S,07329.5199,E,0.3,225.7,300510,12.6,W,A*2D
$HCHDG,229.2,0.0,E,12.6,W*6E
$WIMWV,254.2,R,3.7,N,A*26
$GPGLL,4100.7095,S,07329.5199,E,193009,A,A*50
$HCHDG,224.0,0.0,E,12.6,W*61
$GPRMC,193009,A,4100.7095,S,07329.5199,E,0.3,225.7,300510,12.6,W,A*2D
$WIMWV,250.4,R,3.6,N,A*25
$GPVTG,233.9,T,246.5,M,0.4,N,0.7,K,A*2E
$HCHDG,226.9,0.0,E,12.6,W*6A
$GPGLL,4100.7095,S,07329.5199,E,193010,A,A*58
$GPRMC,193010,A,4100.7095,S,07329.5199,E,0.4,233.9,300510,12.6,W,A*2B
$WIMWV,248.5,R,3.8,N,A*23
$HCHDG,217.6,0.0,E,12.6,W*67
$GPGLL,4100.7095,S,07329.5199,E,193011,A,A*59
$GPRMC,193011,A,4100.7095,S,07329.5199,E,0.9,257.7,300510,12.6,W,A*2B
$WIMWV,250.2,R,3.7,N,A*22
$HCHDG,205.5,0.0,E,12.6,W*67
$GPVTG,257.7,T,270.3,M,0.9,N,1.7,K,A*2D
$GPGLL,4100.7095,S,07329.5199,E,193011,A,A*59
$GPRMC,193012,A,4100.7095,S,07329.5199,E,0.8,236.3,300510,12.6,W,A*2A
$HCHDG,212.5,0.0,E,12.6,W*61
$WIMWV,253.6,R,3.5,N,A*27
$GPGLL,4100.7095,S,07329.5199,E,193012,A,A*5A
$GPRMC,193012,A,4100.7095,S,07329.5199,E,0.8,236.3,300510,12.6,W,A*2A
$HCHDG,216.5,0.0,E,12.6,W*65
$WIMWV,255.8,R,3.2,N,A*28
$GPVTG,210.3,T,222.9,M,1.6,N,3.0,K,A*2C
$GPGLL,4100.7095,S,07329.5199,E,193013,A,A*5B
$HCHDG,218.2,0.0,E,12.6,W*6C
$WIMWV,251.8,R,2.8,N,A*27
$GPRMC,193013,A,4100.7095,S,07329.5199,E,1.6,210.3,300510,12.6,W,A*20
$HCHDG,221.9,0.0,E,12.6,W*6D
$GPGLL,4100.7095,S,07329.5199,E,193014,A,A*5C
$WIMWV,253.3,R,2.5,N,A*23
$HCHDG,221.8,0.0,E,12.6,W*6C
$GPRMC,193014,A,4100.7095,S,07329.5199,E,0.9,201.9,300510,12.6,W,A*23
$HCHDG,222.3,0.0,E,12.6,W*64
$WIMWV,253.1,R,2.4,N,A*20
$GPGLL,4100.7095,S,07329.5199,E,193014,A,A*5C
$GPVTG,197.8,T,210.4,M,0.2,N,0.4,K,A*25
$HCHDG,220.1,0.0,E,12.6,W*64
$WIMWV,254.5,R,2.1,N,A*26
$GPRMC,193015,A,4100.7095,S,07329.5199,E,0.2,197.8,300510,12.6,W,A*24
$HCHDG,218.7,0.0,E,12.6,W*69
$GPGLL,4100.7095,S,07329.5199,E,193015,A,A*5D
$WIMWV,253.1,R,1.8,N,A*2F
$GPRMC,193015,A,4100.7095,S,07329.5199,E,0.2,197.8,300510,12.6,W,A*24
$HCHDG,215.9,0.0,E,12.6,W*6A
$WIMWV,254.7,R,1.7,N,A*21
$GPGLL,4100.7095,S,07329.5191,E,193016,A,A*56
$GPVTG,197.2,T,209.8,M,0.1,N,0.2,K,A*2E
$HCHDG,216.5,0.0,E,12.6,W*65
CHDG,215.3,0.0,E,12.6,W*60
$GPRMC,193017,A,4100.7095,S,07329.5175,E,0.2,192.1,300510,12.6,W,A*28
$WIMWV,255.7,R,1.3,N,A*24
$HCHDG,214.9,0.0,E,12.6,W*6B
$GPVTG,192.1,T,204.7,M,0.2,N,0.4,K,A*2F
$GPGLL,4100.7067,S,07329.5119,E,193018,A,A*55
$WIMWV,254.4,R,1.1,N,A*24
$HCHDG,216.7,0.0,E,12.6,W*67
$GPRMC,193018,A,4100.7067,S,07329.5119,E,0.1,194.3,300510,12.6,W,A*27
$WIMWV,257.9,R,1.1,N,A*2A
$GPGLL,4100.7067,S,07329.5119,E,193018,A,A*55
$HCHDG,215.7,0.0,E,12.6,W*64
$GPRMC,193019,A,4100.7047,S,07329.5079,E,0.1,194.2,300510,12.6,W,A*22
$WIMWV,258.1,R,1.1,N,A*2D
$GPVTG,194.2,T,206.8,M,0.1,N,0.2,K,A*22
$HCHDG,214.4,0.0,E,12.6,W*66
$GPGLL,4100.7047,S,07329.5079,E,193019,A,A*51
$GPRMC,193019,A,4100.7047,S,07329.5079,E,0.1,194.2,300510,12.6,W,A*22
$WIMWV,257.3,R,1.0,N,A*21
$HCHDG,214.2,0.0,E,12.6,W*60
$GPGLL,4100.7059,S,07329.5087,E,193020,A,A*55
$GPRMC,193020,A,4100.7059,S,07329.5087,E,0.1,194.1,300510,12.6,W,A*25
$WIMWV,253.4,R,0.9,N,A*2A
$HCHDG,213.8,0.0,E,12.6,W*6D
$GPVTG,195.6,T,208.2,M,0.1,N,0.2,K,A*23
$GPGLL,4100.7059,S,07329.5087,E,193021,A,A*54
$WIMWV,253.6,R,0.9,N,A*28
$HCHDG,214.0,0.0,E,12.6,W*62
$GPRMC,193021,A,4100.7059,S,07329.5087,E,0.1,195.6,300510,12.6,W,A*22
$WIMWV,253.1,R,0.9,N,A*2F
$GPGLL,4100.7059,S,07329.5087,E,193021,A,A*54
$HCHDG,214.3,0.0,E,12.6,W*61
$WIMWV,255.1,R,0.8,N,A*28
$GPRMC,193022,A,4100.7059,S,07329.5087,E,0.0,195.6,300510,12.6,W,A*20
$GPVTG,195.6,T,208.2,M,0.0,N,0.0,K,A*20
$HCHDG,214.3,0.0,E,12.6,W*61
$WIMWV,254.0,R,0.9,N,A*29
$GPGLL,4100.7059,S,07329.5087,E,193022,A,A*57
$GPRMC,193023,A,4100.7055,S,07329.5095,E,0.0,195.5,300510,12.6,W,A*2D
$HCHDG,214.5,0.0,E,12.6,W*67
$WIMWV,254.6,R,0.8,N,A*2E
$GPGLL,4100.7055,S,07329.5095,E,193023,A,A*59
$HCHDG,214.6,0.0,E,12.6,W*64
$GPRMC,193023,A,4100.7055,S,07329.5095,E,0.0,195.5,300510,12.6,W,A*2D
$WIMWV,251.6,R,0.8,N,A*2B
$GPVTG,195.6,T,208.2,M,0.0,N,0.0,K,A*20
$HCHDG,214.5,0.0,E,12.6,W*67
$GPGLL,4100.7055,S,07329.5095,E,193024,A,A*5E
$WIMWV,249.9,R,0.9,N,A*2C
$GPRMC,193024,A,4100.7055,S,07329.5095,E,0.0,195.6,300510,12.6,W,A*29
$HCHDG,214.9,0.0,E,12.6,W*6B
$WIMWV,249.5,R,0.9,N,A*20
$GPGLL,4100.7055,S,07329.5111,E,193025,A,A*52
$HCHDG,214.2,0.0,E,12.6,W*60
$GPRMC,193025,A,4100.7055,S,07329.5111,E,0.1,195.3,300510,12.6,W,A*21
$WIMWV,255.1,R,0.8,N,A*28
$GPVTG,195.3,T,207.9,M,0.1,N,0.2,K,A*22
$HCHDG,216.0,0.0,E,12.6,W*60
$GPGLL,4100.7055,S,07329.5111,E,193025,A,A*52
$GPRMC,193026,A,4100.7047,S,07329.5111,E,0.0,195.6,300510,12.6,W,A*25
$WIMWV,249.7,R,0.8,N,A*23
$HCHDG,216.0,0.0,E,12.6,W*60
$GPGLL,4100.7047,S,07329.5111,E,193026,A,A*52
$GPRMC,193026,A,4100.7047,S,07329.5111,E,0.0,195.6,300510,12.6,W,A*25
$WIMWV,248.1,R,0.8,N,A*24
$HCHDG,214.8,0.0,E,12.6,W*6A
$GPVTG,195.7,T,208.3,M,0.0,N,0.0,K,A*20
$GPGLL,4100.7047,S,07329.5111,E,193027,A,A*53
$HCHDG,214.9,0.0,E,12.6,W*6B
$WIMWV,253.1,R,0.8,N,A*2E
$GPRMC,193027,A,4100.7047,S,07329.5111,E,0.0,195.7,300510,12.6,W,A*25
$HCHDG,216.3,0.0,E,12.6,W*63
$WIMWV,250.6,R,0.8,N,A*2A
$GPGLL,4100.7047,S,07329.5111,E,193028,A,A*5C
$GPRMC,193028,A,4100.7047,S,07329.5111,E,0.0,195.4,300510,12.6,W,A*29
$HCHDG,215.9,0.0,E,12.6,W*6A
$WIMWV,253.1,R,0.8,N,A*2E
$GPVTG,195.4,T,208.0,M,0.0,N,0.0,K,A*20
$GPGLL,4100.7047,S,07329.5111,E,193028,A,A*5C
$HCHDG,216.2,0.0,E,12.6,W*62
$GPRMC,193029,A,4100.7055,S,07329.5119,E,0.1,195.0,300510,12.6,W,A*26
$WIMWV,270.0,R,0.9,N,A*2F
$HCHDG,216.6,0.0,E,12.6,W*66
$GPGLL,4100.7055,S,07329.5119,E,193029,A,A*56
$HCHDG,213.8,0.0,E,12.6,W*6D
$WIMWV,270.0,R,0.9,N,A*2F
$GPRMC,193029,A,4100.7055,S,07329.5119,E,0.1,195.0,300510,12.6,W,A*26
$HCHDG,204.1,0.0,E,12.6,W*62
$GPGLL,4100.7039,S,07329.5111,E,193030,A,A*5C
$WIMWV,270.0,R,0.9,N,A*2F
$GPVTG,197.2,T,209.8,M,0.4,N,0.7,K,A*2E
$HCHDG,195.9,0.0,E,12.6,W*61
$GPRMC,193030,A,4100.7039,S,07329.5111,E,0.4,197.2,300510,12.6,W,A*29
$GPGLL,4100.7039,S,07329.5111,E,193030,A,A*5C
$WIMWV,270.0,R,0.7,N,A*21
$HCHDG,188.5,0.0,E,12.6,W*61
$GPRMC,193031,A,4100.7035,S,07329.5111,E,1.2,201.4,300510,12.6,W,A*29
$HCHDG,187.1,0.0,E,12.6,W*6A
$WIMWV,270.0,R,0.4,N,A*22
$GPGLL,4100.7035,S,07329.5111,E,193031,A,A*51
$GPVTG,201.4,T,214.0,M,1.2,N,2.2,K,A*20
$HCHDG,188.1,0.0,E,12.6,W*65
$WIMWV,320.4,R,0.4,N,A*22
$GPRMC,193032,A,4100.7027,S,07329.5119,E,1.5,204.1,300510,12.6,W,A*26
$GPGLL,4100.7027,S,07329.5119,E,193032,A,A*59
$HCHDG,189.4,0.0,E,12.6,W*61
$WIMWV,30.8,R,0.4,N,A*1C
$GPRMC,193032,A,4100.7027,S,07329.5119,E,1.5,204.1,300510,12.6,W,A*26
$HCHDG,188.1,0.0,E,12.6,W*65
$GPVTG,197.7,T,210.3,M,1.8,N,3.3,K,A*22
$GPGLL,4100.7019,S,07329.5119,E,193033,A,A*55
$WIMWV,49.2,R,0.5,N,A*19
$HCHDG,186.6,0.0,E,12.6,W*6C
$GPRMC,193033,A,4100.7019,S,07329.5119,E,1.8,197.7,300510,12.6,W,A*28
$HCHDG,188.1,0.0,E,12.6,W*65
$WIMWV,52.5,R,0.8,N,A*19
$GPGLL,4100.7007,S,07329.5135,E,193034,A,A*53
$HCHDG,186.5,0.0,E,12.6,W*6F
$WIMWV,57.0,R,0.9,N,A*18
$GPRMC,193034,A,4100.7007,S,07329.5135,E,2.2,192.1,300510,12.6,W,A*24
$GPVTG,192.1,T,204.7,M,2.2,N,4.1,K,A*2C
$HCHDG,190.1,0.0,E,12.6,W*6C
$WIMWV,55.0,R,1.1,N,A*13
$GPGLL,4100.7007,S,07329.5135,E,193034,A,A*53
$GPRMC,193035,A,4100.7007,S,07329.5135,E,2.2,187.0,300510,12.6,W,A*20
$HCHDG,189.5,0.0,E,12.6,W*60
$WIMWV,48.4,R,1.3,N,A*19
$GPGLL,4100.7007,S,07329.5135,E,193035,A,A*52
$HCHDG,188.5,0.0,E,12.6,W*61
$GPRMC,193035,A,4100.7007,S,07329.5135,E,2.2,187.0,300510,12.6,W,A*20
$WIMWV,50.2,R,1.5,N,A*10
$HCHDG,189.9,0.0,E,12.6,W*6C
$GPVTG,181.6,T,194.2,M,2.1,N,3.9,K,A*2A
$GPGLL,4100.6999,S,07329.5119,E,193036,A,A*50
$WIMWV,53.2,R,1.6,N,A*10
$HCHDG,186.3,0.0,E,12.6,W*69
$GPRMC,193036,A,4100.6999,S,07329.5119,E,2.1,181.6,300510,12.6,W,A*21
$WIMWV,55.9,R,1.5,N,A*1E
$HCHDG,189.1,0.0,E,12.6,W*64
$GPGLL,4100.6987,S,07329.5119,E,193037,A,A*5E
$WIMWV,58.5,R,1.4,N,A*1E
$GPRMC,193037,A,4100.6987,S,07329.5119,E,2.2,177.6,300510,12.6,W,A*25
$HCHDG,186.3,0.0,E,12.6,W*69
$GPVTG,177.6,T,190.2,M,2.2,N,4.1,K,A*2B
$WIMWV,59.3,R,1.2,N,A*1F
$GPGLL,4100.6987,S,07329.5119,E,193037,A,A*5E
$HCHDG,185.3,0.0,E,12.6,W*6A
$GPRMC,193038,A,4100.6983,S,07329.5111,E,2.5,175.7,300510,12.6,W,A*22
$WIMWV,65.1,R,0.9,N,A*18
$HCHDG,184.4,0.0,E,12.6,W*6C
$GPGLL,4100.6983,S,07329.5111,E,193038,A,A*5D
$GPRMC,193038,A,4100.6983,S,07329.5111,E,2.5,175.7,300510,12.6,W,A*22
$HCHDG,186.3,0.0,E,12.6,W*69
$WIMWV,72.7,R,0.9,N,A*18
$GPVTG,177.3,T,189.9,M,2.3,N,4.3,K,A*2E
$GPGLL,4100.6975,S,07329.5119,E,193039,A,A*5D
$HCHDG,182.0,0.0,E,12.6,W*6E
$GPRMC,193039,A,4100.6975,S,07329.5119,E,2.3,177.3,300510,12.6,W,A*22
$WIMWV,65.6,R,0.8,N,A*1E
$HCHDG,185.6,0.0,E,12.6,W*6F
$GPGLL,4100.6975,S,07329.5119,E,193039,A,A*5D
$GPRMC,193040,A,4100.6967,S,07329.5119,E,2.9,176.2,300510,12.6,W,A*25
$HCHDG,182.7,0.0,E,12.6,W*69
$WIMWV,61.4,R,0.6,N,A*16
$GPVTG,176.2,T,188.8,M,2.9,N,5.4,K,A*22
$GPGLL,4100.6967,S,07329.5119,E,193040,A,A*50
$GPRMC,193040,A,4100.6967,S,07329.5119,E,2.9,176.2,300510,12.6,W,A*25
$HCHDG,182.1,0.0,E,12.6,W*6F
$WIMWV,69.3,R,0.4,N,A*1B
$GPGLL,4100.6939,S,07329.5111,E,193041,A,A*52
$GPRMC,193041,A,4100.6939,S,07329.5111,E,2.9,172.6,300510,12.6,W,A*27
$HCHDG,181.3,0.0,E,12.6,W*6E
$WIMWV,58.9,R,0.5,N,A*12
$GPVTG,172.6,T,185.2,M,2.9,N,5.4,K,A*25
$GPGLL,4100.6939,S,07329.5111,E,193041,A,A*52
$HCHDG,180.3,0.0,E,12.6,W*6F
$WIMWV,49.5,R,0.5,N,A*1E
$GPRMC,193042,A,4100.6927,S,07329.5111,E,0.5,179.4,300510,12.6,W,A*2C
$HCHDG,181.9,0.0,E,12.6,W*64
$GPGLL,4100.6927,S,07329.5111,E,193042,A,A*5E
$WIMWV,47.4,R,0.6,N,A*12
$GPRMC,193042,A,4100.6927,S,07329.5111,E,0.5,179.4,300510,12.6,W,A*2C
$HCHDG,185.7,0.0,E,12.6,W*6E
$GPVTG,191.3,T,203.9,M,0.6,N,1.1,K,A*27
$WIMWV,51.0,R,0.7,N,A*10
$GPGLL,4100.6935,S,07329.5119,E,193043,A,A*54
$HCHDG,181.9,0.0,E,12.6,W*64
$GPRMC,193043,A,4100.6935,S,07329.5119,E,0.6,191.3,300510,12.6,W,A*24
$WIMWV,57.9,R,0.8,N,A*10
$HCHDG,180.7,0.0,E,12.6,W*6B
$GPGLL,4100.6935,S,07329.5119,E,193043,A,A*54
$WIMWV,58.9,R,0.8,N,A*1F
$GPRMC,193044,A,4100.6939,S,07329.5119,E,0.3,194.0,300510,12.6,W,A*2C
$HCHDG,173.4,0.0,E,12.6,W*64
$GPVTG,194.0,T,206.6,M,0.3,N,0.6,K,A*28
$WIMWV,51.0,R,0.7,N,A*10
$GPGLL,4100.6939,S,07329.5119,E,193044,A,A*5F
$HCHDG,172.4,0.0,E,12.6,W*65
$GPRMC,193044,A,4100.6939,S,07329.5119,E,0.3,194.0,300510,12.6,W,A*2C
$WIMWV,55.1,R,0.7,N,A*15
$HCHDG,169.8,0.0,E,12.6,W*63
$GPGLL,4100.6939,S,07329.5119,E,193045,A,A*5E
$WIMWV,47.6,R,0.6,N,A*10
$GPRMC,193045,A,4100.6939,S,07329.5119,E,0.3,194.0,300510,12.6,W,A*2D
$HCHDG,169.9,0.0,E,12.6,W*62
$GPVTG,194.0,T,206.6,M,0.3,N,0.6,K,A*28
$WIMWV,49.4,R,0.7,N,A*1D
$GPGLL,4100.6939,S,07329.5119,E,193046,A,A*5D
$HCHDG,171.4,0.0,E,12.6,W*66
$GPRMC,193046,A,4100.6939,S,07329.5119,E,0.3,194.0,300510,12.6,W,A*2E
$WIMWV,55.1,R,0.7,N,A*15
$HCHDG,170.8,0.0,E,12.6,W*6B
$GPGLL,4100.6939,S,07329.5119,E,193046,A,A*5D
$GPRMC,193046,A,4100.6939,S,07329.5119,E,0.3,194.0,300510,12.6,W,A*2E
$HCHDG,177.4,0.0,E,12.6,W*60
$WIMWV,53.5,R,0.5,N,A*15
$GPVTG,194.0,T,206.6,M,0.3,N,0.6,K,A*28
$GPGLL,4100.6939,S,07329.5119,E,193047,A,A*5C
$HCHDG,174.1,0.0,E,12.6,W*66
$GPRMC,193047,V,,,,,,,300510,12.6,W,N*10
$WIMWV,54.3,R,0.5,N,A*14
$HCHDG,176.3,0.0,E,12.6,W*66
$GPGLL,,,,,,V,N*64
$WIMWV,47.9,R,0.4,N,A*1D
$GPRMC,193048,V,,,,,,,300510,12.6,W,N*1F
$HCHDG,177.7,0.0,E,12.6,W*63
$GPVTG,,,,,,,,,N*30
$WIMWV,37.5,R,0.4,N,A*16
$GPGLL,,,,,,V,N*64
$HCHDG,178.3,0.0,E,12.6,W*68
$GPRMC,193048,V,,,,,,,300510,12.6,W,N*1F
$WIMWV,30.6,R,0.3,N,A*15
$HCHDG,180.1,0.0,E,12.6,W*6D
$GPGLL,,,,,,V,N*64
$WIMWV,41.1,R,0.4,N,A*13
$HCHDG,183.9,0.0,E,12.6,W*66
$GPRMC,193049,V,,,,,,,300510,12.6,W,N*1E
$WIMWV,45.1,R,0.4,N,A*17
$GPVTG,,,,,,,,,N*30
$HCHDG,186.9,0.0,E,12.6,W*63
$GPGLL,,,,,,V,N*64
$WIMWV,43.0,R,0.4,N,A*10
$GPRMC,193049,V,,,,,,,300510,12.6,W,N*1E
$HCHDG,188.2,0.0,E,12.6,W*66
$WIMWV,37.0,R,0.4,N,A*13
$GPGLL,,,,,,V,N*64
$HCHDG,192.5,0.0,E,12.6,W*6A
$GPRMC,193050,V,,,,,,,300510,12.6,W,N*16
$WIMWV,41.2,R,0.3,N,A*17
$HCHDG,189.1,0.0,E,12.6,W*64
$GPVTG,,,,,,,,,N*30
$GPGLL,,,,,,V,N*64
$WIMWV,43.4,R,0.4,N,A*14
$HCHDG,183.2,0.0,E,12.6,W*6D
$GPRMC,193050,V,,,,,,,300510,12.6,W,N*16
$WIMWV,42.7,R,0.4,N,A*16
$HCHDG,181.6,0.0,E,12.6,W*6B
$GPGLL,,,,,,V,N*64
$WIMWV,34.3,R,0.4,N,A*13
$GPRMC,193051,V,,,,,,,300510,12.6,W,N*17
$HCHDG,182.5,0.0,E,12.6,W*6B
$GPVTG,,,,,,,,,N*30
$WIMWV,0.0,R,0.2,N,A*21
$GPGLL,,,,,,V,N*64
$HCHDG,181.4,0.0,E,12.6,W*69
$GPRMC,193051,V,,,,,,,300510,12.6,W,N*17
$WIMWV,0.0,R,0.1,N,A*22
$HCHDG,181.3,0.0,E,12.6,W*6E
$GPGLL,,,,,,V,N*64
$WIMWV,0.0,R,0.1,N,A*22
$HCHDG,180.1,0.0,E,12.6,W*6D
$GPRMC,193052,V,,,,,,,300510,12.6,W,N*14
$WIMWV,0.0,R,0.1,N,A*22
$GPVTG,,,,,,,,,N*30
$HCHDG,179.0,0.0,E,12.6,W*6A
$GPGLL,,,,,,V,N*64
$WIMWV,0.0,R,0.1,N,A*22
$GPRMC,193052,V,,,,,,,300510,12.6,W,N*14
$HCHDG,179.4,0.0,E,12.6,W*6E
$WIMWV,0.0,R,0.1,N,A*22
$GPGLL,,,,,,V,N*64
$HCHDG,179.4,0.0,E,12.6,W*6E
$GPRMC,193053,V,,,,,,,300510,12.6,W,N*15
$WIMWV,0.0,R,0.1,N,A*22
$HCHDG,178.8,0.0,E,12.6,W*63
$GPVTG,,,,,,,,,N*30
$GPGLL,,,,,,V,N*64
$WIMWV,0.0,R,0.2,N,A*21
$HCHDG,176.8,0.0,E,12.6,W*6D
$GPRMC,193053,V,,,,,,,300510,12.6,W,N*15
$WIMWV,0.0,R,0.2,N,A*21
$HCHDG,178.8,0.0,E,12.6,W*63
$GPGLL,,,,,,V,N*64
$WIMWV,0.0,R,0.2,N,A*21
$GPRMC,193054,V,,,,,,,300510,12.6,W,N*12
$HCHDG,182.4,0.0,E,12.6,W*6A
$GPVTG,,,,,,,,,N*30
$WIMWV,28.6,R,0.3,N,A*1C
$GPGLL,,,,,,V,N*64
$HCHDG,181.9,0.0,E,12.6,W*64
$GPRMC,193054,V,,,,,,,300510,12.6,W,N*12
$WIMWV,38.8,R,0.3,N,A*13
$HCHDG,182.8,0.0,E,12.6,W*66
$GPGLL,,,,,,V,N*64
$WIMWV,43.7,R,0.5,N,A*16
$HCHDG,187.3,0.0,E,12.6,W*68
$GPRMC,193055,V,,,,,,,300510,12.6,W,N*13
$WIMWV,51.0,R,0.5,N,A*12
$GPVTG,,,,,,,,,N*30
$HCHDG,189.7,0.0,E,12.6,W*62
$GPGLL,,,,,,V,N*64
$WIMWV,55.7,R,0.6,N,A*12
$GPRMC,193055,V,,,,,,,300510,12.6,W,N*13
$HCHDG,193.4,0.0,E,12.6,W*6A
$WIMWV,57.5,R,0.6,N,A*12
$GPGLL,,,,,,V,N*64
$HCHDG,195.6,0.0,E,12.6,W*6E
$GPRMC,193056,V,,,,,,,300510,12.6,W,N*10
$WIMWV,61.9,R,0.6,N,A*1B
$HCHDG,199.6,0.0,E,12.6,W*62
$GPVTG,,,,,,,,,N*30
$GPGLL,,,,,,V,N*64
$WIMWV,65.0,R,0.5,N,A*15
$HCHDG,196.0,0.0,E,12.6,W*6B
$GPRMC,193056,V,,,,,,,300510,12.6,W,N*10
$WIMWV,60.8,R,0.5,N,A*18
$HCHDG,196.1,0.0,E,12.6,W*6A
$GPGLL,,,,,,V,N*64
$WIMWV,53.5,R,0.5,N,A*15
$GPRMC,193057,V,,,,,,,300510,12.6,W,N*11
$HCHDG,198.7,0.0,E,12.6,W*62
$GPVTG,,,,,,,,,N*30
$WIMWV,61.5,R,0.3,N,A*12
$GPGLL,,,,,,V,N*64
$HCHDG,200.4,0.0,E,12.6,W*63
$GPRMC,193057,V,,,,,,,300510,12.6,W,N*11
$WIMWV,90.0,R,0.2,N,A*18
$HCHDG,199.0,0.0,E,12.6,W*64
$GPGLL,,,,,,V,N*64
$WIMWV,90.0,R,0.2,N,A*18
$HCHDG,198.3,0.0,E,12.6,W*66
$GPRMC,193058,V,,,,,,,300510,12.6,W,N*1E
$WIMWV,90.0,R,0.1,N,A*1B
$GPVTG,,,,,,,,,N*30
$HCHDG,191.2,0.0,E,12.6,W*6E
$GPGLL,,,,,,V,N*64
$WIMWV,90.0,R,0.1,N,A*1B
$GPRMC,193058,V,,,,,,,300510,12.6,W,N*1E
$HCHDG,188.0,0.0,E,12.6,W*64
$WIMWV,0.0,R,0.2,N,A*21
$GPGLL,,,,,,V,N*64
$HCHDG,186.6,0.0,E,12.6,W*6C
$GPRMC,193059,V,,,,,,,300510,12.6,W,N*1F
$WIMWV,0.0,R,0.0,N,A*23
$HCHDG,185.0,0.0,E,12.6,W*69
$GPVTG,,,,,,,,,N*30
$GPGLL,,,,,,V,N*64
$WIMWV,0.0,R,0.1,N,A*22
$HCHDG,187.2,0.0,E,12.6,W*69
$GPRMC,193059,V,,,,,,,300510,12.6,W,N*1F
$WIMWV,0.0,R,0.1,N,A*22
$HCHDG,187.7,0.0,E,12.6,W*6C
$GPGLL,,,,,,V,N*64
$WIMWV,0.0,R,0.1,N,A*22
$GPRMC,193100,V,,,,,,,300510,12.6,W,N*12
$HCHDG,187.1,0.0,E,12.6,W*6A
$GPVTG,,,,,,,,,N*30
$WIMWV,0.0,R,0.2,N,A*21
$GPGLL,,,,,,V,N*64
$HCHDG,185.7,0.0,E,12.6,W*6E
$GPRMC,193100,V,,,,,,,300510,12.6,W,N*12
$WIMWV,270.0,R,0.2,N,A*24
$HCHDG,184.3,0.0,E,12.6,W*6B
$GPGLL,,,,,,V,N*64
$WIMWV,270.0,R,0.3,N,A*25
$HCHDG,188.2,0.0,E,12.6,W*66
$GPRMC,193101,V,,,,,,,300510,12.6,W,N*13
$WIMWV,270.0,R,0.3,N,A*25
$GPVTG,,,,,,,,,N*30
$HCHDG,190.4,0.0,E,12.6,W*69
$GPGLL,,,,,,V,N*64
$WIMWV,270.0,R,0.4,N,A*22
$GPRMC,193101,V,,,,,,,300510,12.6,W,N*13
$HCHDG,191.0,0.0,E,12.6,W*6C
$WIMWV,270.0,R,0.4,N,A*22
$GPGLL,,,,,,V,N*64
$HCHDG,193.1,0.0,E,12.6,W*6F
$GPRMC,193102,V,,,,,,,300510,12.6,W,N*10
$WIMWV,270.0,R,0.4,N,A*22
$HCHDG,194.4,0.0,E,12.6,W*6D
$GPVTG,,,,,,,,,N*30
$GPGLL,,,,,,V,N*64
$WIMWV,270.0,R,0.4,N,A*22
$HCHDG,191.6,0.0,E,12.6,W*6A
$GPRMC,193102,V,,,,,,,300510,12.6,W,N*10
$WIMWV,270.0,R,0.4,N,A*22
$HCHDG,192.2,0.0,E,12.6,W*6D
$GPGLL,,,,,,V,N*64
$WIMWV,270.0,R,0.4,N,A*22
$GPRMC,193103,V,,,,,,,300510,12.6,W,N*11
$HCHDG,196.0,0.0,E,12.6,W*6B
$GPVTG,,,,,,,,,N*30
$WIMWV,270.0,R,0.4,N,A*22
$GPGLL,,,,,,V,N*64
$HCHDG,194.9,0.0,E,12.6,W*60
$GPRMC,193103,V,,,,,,,300510,12.6,W,N*11
$WIMWV,270.0,R,0.5,N,A*23
$HCHDG,192.8,0.0,E,12.6,W*67
$GPGLL,,,,,,V,N*64
$WIMWV,270.0,R,0.5,N,A*23
$HCHDG,193.9,0.0,E,12.6,W*67
$GPRMC,193104,V,,,,,,,300510,12.6,W,N*16
$WIMWV,270.0,R,0.5,N,A*23
$GPVTG,,,,,,,,,N*30
$HCHDG,195.0,0.0,E,12.6,W*68
$GPGLL,,,,,,V,N*64
$WIMWV,270.0,R,0.4,N,A*22
$GPRMC,193104,V,,,,,,,300510,12.6,W,N*16
$HCHDG,193.7,0.0,E,12.6,W*69
$WIMWV,270.0,R,0.4,N,A*22
$GPGLL,,,,,,V,N*64
$HCHDG,189.4,0.0,E,12.6,W*61
$GPRMC,193105,V,,,,,,,300510,12.6,W,N*17
$WIMWV,270.0,R,0.3,N,A*25
$HCHDG,186.4,0.0,E,12.6,W*6E
$GPVTG,,,,,,,,,N*30
$GPGLL,,,,,,V,N*64
$WIMWV,270.0,R,0.4,N,A*22
$HCHDG,183.3,0.0,E,12.6,W*6C
$GPRMC,193105,V,,,,,,,300510,12.6,W,N*17
$WIMWV,270.0,R,0.3,N,A*25
$HCHDG,172.9,0.0,E,12.6,W*68
$GPGLL,,,,,,V,N*64
$WIMWV,270.0,R,0.2,N,A*24
$GPRMC,193106,V,,,,,,,300510,12.6,W,N*14
$HCHDG,172.8,0.0,E,12.6,W*69
$GPVTG,,,,,,,,,N*30
$WIMWV,270.0,R,0.2,N,A*24
$GPGLL,,,,,,V,N*64
$HCHDG,161.6,0.0,E,12.6,W*65
$GPRMC,193106,V,,,,,,,300510,12.6,W,N*14
$WIMWV,270.0,R,0.3,N,A*25
$HCHDG,152.2,0.0,E,12.6,W*61
$GPGLL,,,,,,V,N*64
$WIMWV,270.0,R,0.3,N,A*25
$HCHDG,157.2,0.0,E,12.6,W*64
$GPRMC,193107,V,,,,,,,300510,12.6,W,N*15
$WIMWV,270.0,R,0.3,N,A*25
$GPVTG,,,,,,,,,N*30
$HCHDG,152.4,0.0,E,12.6,W*67
$GPGLL,,,,,,V,N*64
$WIMWV,270.0,R,0.3,N,A*25
$GPRMC,193107,V,,,,,,,300510,12.6,W,N*15
$HCHDG,174.4,0.0,E,12.6,W*63
$WIMWV,270.0,R,0.3,N,A*25
$GPGLL,,,,,,V,N*64
$HCHDG,161.7,0.0,E,12.6,W*64
$GPRMC,193108,V,,,,,,,300510,12.6,W,N*1A
$WIMWV,270.0,R,0.3,N,A*25
$HCHDG,178.3,0.0,E,12.6,W*68
$GPVTG,,,,,,,,,N*30
$GPGLL,,,,,,V,N*64
$WIMWV,270.0,R,0.3,N,A*25
$HCHDG,204.5,0.0,E,12.6,W*66
$GPRMC,193108,V,,,,,,,300510,12.6,W,N*1A
$WIMWV,270.0,R,0.2,N,A*24
$HCHDG,197.3,0.0,E,12.6,W*69
$GPGLL,,,,,,V,N*64
$WIMWV,270.0,R,0.2,N,A*24
$GPRMC,193109,V,,,,,,,300510,12.6,W,N*1B
$HCHDG,196.0,0.0,E,12.6,W*6B
$GPVTG,,,,,,,,,N*30
$WIMWV,270.0,R,0.3,N,A*25
$GPGLL,,,,,,V,N*64
$HCHDG,197.7,0.0,E,12.6,W*6D
$GPRMC,193109,V,,,,,,,300510,12.6,W,N*1B
$WIMWV,270.0,R,0.2,N,A*24
$HCHDG,200.2,0.0,E,12.6,W*65
$GPGLL,,,,,,V,N*64
$WIMWV,270.0,R,0.2,N,A*24
$HCHDG,204.4,0.0,E,12.6,W*67
$GPRMC,193110,V,,,,,,,300510,12.6,W,N*13
$WIMWV,270.0,R,0.3,N,A*25
$GPVTG,,,,,,,,,N*30
$HCHDG,205.1,0.0,E,12.6,W*63
$GPGLL,,,,,,V,N*64
$WIMWV,270.0,R,0.2,N,A*24
$GPRMC,193110,V,,,,,,,300510,12.6,W,N*13
$HCHDG,205.1,0.0,E,12.6,W*63
$WIMWV,270.0,R,0.3,N,A*25
$GPGLL,,,,,,V,N*64
$HCHDG,205.9,0.0,E,12.6,W*6B
$GPRMC,193111,V,,,,,,,300510,12.6,W,N*12
$WIMWV,270.0,R,0.2,N,A*24
$HCHDG,207.5,0.0,E,12.6,W*65
$GPVTG,,,,,,,,,N*30
$GPGLL,,,,,,V,N*64
$WIMWV,270.0,R,0.2,N,A*24
$HCHDG,208.8,0.0,E,12.6,W*67
$GPRMC,193111,V,,,,,,,300510,12.6,W,N*12
$WIMWV,270.0,R,0.2,N,A*24
$HCHDG,211.6,0.0,E,12.6,W*61
$GPGLL,,,,,,V,N*64
$WIMWV,270.0,R,0.3,N,A*25
$GPRMC,193112,V,,,,,,,300510,12.6,W,N*11
$HCHDG,210.2,0.0,E,12.6,W*64
$GPVTG,,,,,,,,,N*30
$WIMWV,270.0,R,0.3,N,A*25
$GPGLL,,,,,,V,N*64
$HCHDG,210.8,0.0,E,12.6,W*6E
$GPRMC,193112,V,,,,,,,300510,12.6,W,N*11
$WIMWV,270.0,R,0.2,N,A*24
$HCHDG,212.5,0.0,E,12.6,W*61
$GPGLL,,,,,,V,N*64
$WIMWV,270.0,R,0.2,N,A*24
$HCHDG,220.6,0.0,E,12.6,W*63
$GPRMC,193113,V,,,,,,,300510,12.6,W,N*10
$WIMWV,270.0,R,0.3,N,A*25
$GPVTG,,,,,,,,,N*30
$HCHDG,222.5,0.0,E,12.6,W*62
$GPGLL,,,,,,V,N*64
$WIMWV,270.0,R,0.3,N,A*25
$GPRMC,193113,V,,,,,,,300510,12.6,W,N*10
$HCHDG,224.7,0.0,E,12.6,W*66
$WIMWV,270.0,R,0.2,N,A*24
$GPGLL,,,,,,V,N*64
$HCHDG,222.6,0.0,E,12.6,W*61
$GPRMC,193114,V,,,,,,,300510,12.6,W,N*17
$WIMWV,270.0,R,0.2,N,A*24
$HCHDG,220.1,0.0,E,12.6,W*64
$GPVTG,,,,,,,,,N*30
$GPGLL,,,,,,V,N*64
$WIMWV,270.0,R,0.2,N,A*24
$HCHDG,215.1,0.0,E,12.6,W*62
$GPRMC,193114,V,,,,,,,300510,12.6,W,N*17
$WIMWV,270.0,R,0.2,N,A*24
$HCHDG,213.4,0.0,E,12.6,W*61
$GPGLL,,,,,,V,N*64
$WIMWV,270.0,R,0.2,N,A*24
$GPRMC,193115,V,,,,,,,300510,12.6,W,N*16
$HCHDG,214.2,0.0,E,12.6,W*60
$GPVTG,,,,,,,,,N*30
$WIMWV,270.0,R,0.1,N,A*27
$GPGLL,,,,,,V,N*64
$HCHDG,218.7,0.0,E,12.6,W*69
$GPRMC,193115,V,,,,,,,300510,12.6,W,N*16
$WIMWV,270.0,R,0.1,N,A*27
$HCHDG,221.7,0.0,E,12.6,W*63
$GPGLL,,,,,,V,N*64
$WIMWV,270.0,R,0.1,N,A*27
$HCHDG,217.9,0.0,E,12.6,W*68
$GPRMC,193116,V,,,,,,,300510,12.6,W,N*15
$WIMWV,270.0,R,0.1,N,A*27
$GPVTG,,,,,,,,,N*30
$HCHDG,217.8,0.0,E,12.6,W*69
$GPGLL,,,,,,V,N*64
$WIMWV,270.0,R,0.1,N,A*27
$GPRMC,193116,V,,,,,,,300510,12.6,W,N*15
$HCHDG,218.1,0.0,E,12.6,W*6F
$WIMWV,270.0,R,0.1,N,A*27
$GPGLL,,,,,,V,N*64
$HCHDG,218.4,0.0,E,12.6,W*6A
$GPRMC,193117,V,,,,,,,300510,12.6,W,N*14
$WIMWV,270.0,R,0.1,N,A*27
$HCHDG,217.7,0.0,E,12.6,W*66
$GPVTG,,,,,,,,,N*30
$GPGLL,,,,,,V,N*64
$WIMWV,219.4,R,0.2,N,A*2F
$HCHDG,216.7,0.0,E,12.6,W*67
193122,V,,,,,,,300510,12.6,W,N*12
$HCHDG,216.8,0.0,E,12.6,W*68
$WIMWV,180.0,R,0.1,N,A*2B
$GPGLL,,,,,,V,N*64
$HCHDG,220.7,0.0,E,12.6,W*62
$GPRMC,193124,V,,,,,,,300510,12.6,W,N*14
$HCHDG,237.6,0.0,E,12.6,W*65
$GPVTG,,,,,,,,,N*30
$WIMWV,0.0,R,0.0,N,A*23
$GPGLL,,,,,,V,N*64
$HCHDG,243.3,0.0,E,12.6,W*63
$GPRMC,193124,V,,,,,,,300510,12.6,W,N*14
$WIMWV,0.0,R,0.0,N,A*23
$HCHDG,243.3,0.0,E,12.6,W*63
$GPGLL,,,,,,V,N*64
$WIMWV,0.0,R,0.0,N,A*23
$HCHDG,240.8,0.0,E,12.6,W*6B
$GPRMC,193125,V,,,,,,,300510,12.6,W,N*15
$WIMWV,0.0,R,0.0,N,A*23
$GPVTG,,,,,,,,,N*30
$HCHDG,236.1,0.0,E,12.6,W*63
$GPGLL,,,,,,V,N*64
$WIMWV,0.0,R,0.0,N,A*23
$GPRMC,193125,V,,,,,,,300510,12.6,W,N*15
$HCHDG,231.8,0.0,E,12.6,W*6D
$WIMWV,0.0,R,0.0,N,A*23
$GPGLL,,,,,,V,N*64
$HCHDG,228.6,0.0,E,12.6,W*6B
$GPRMC,193126,V,,,,,,,300510,12.6,W,N*16
$WIMWV,0.0,R,0.0,N,A*23
$HCHDG,229.1,0.0,E,12.6,W*6D
$GPVTG,,,,,,,,,N*30
$GPGLL,,,,,,V,N*64
$WIMWV,0.0,R,0.0,N,A*23
$HCHDG,229.5,0.0,E,12.6,W*69
$GPRMC,193126,V,,,,,,,300510,12.6,W,N*16
$WIMWV,0.0,R,0.0,N,A*23
$HCHDG,233.3,0.0,E,12.6,W*64
$GPGLL,,,,,,V,N*64
$WIMWV,0.0,R,0.0,N,A*23
$GPRMC,193127,V,,,,,,,300510,12.6,W,N*17
$HCHDG,245.4,0.0,E,12.6,W*62
$GPVTG,,,,,,,,,N*30
$WIMWV,0.0,R,0.0,N,A*23
$GPGLL,,,,,,V,N*64
$HCHDG,251.8,0.0,E,12.6,W*6B
$GPRMC,193127,V,,,,,,,300510,12.6,W,N*17
$WIMWV,0.0,R,0.0,N,A*23
$HCHDG,252.9,0.0,E,12.6,W*69
$GPGLL,,,,,,V,N*64
$WIMWV,0.0,R,0.0,N,A*23
$HCHDG,268.6,0.0,E,12.6,W*6F
$GPRMC,193128,V,,,,,,,300510,12.6,W,N*18
$WIMWV,0.0,R,0.0,N,A*23
$GPVTG,,,,,,,,,N*30
$HCHDG,263.8,0.0,E,12.6,W*6A
$GPGLL,,,,,,V,N*64
$WIMWV,0.0,R,0.0,N,A*23
$GPRMC,193128,V,,,,,,,300510,12.6,W,N*18
$HCHDG,255.1,0.0,E,12.6,W*66
$WIMWV,0.0,R,0.0,N,A*23
$GPGLL,,,,,,V,N*64
$HCHDG,253.4,0.0,E,12.6,W*65
$GPRMC,193129,V,,,,,,,300510,12.6,W,N*19
$WIMWV,270.0,R,0.1,N,A*27
$HCHDG,263.8,0.0,E,12.6,W*6A
$GPVTG,,,,,,,,,N*30
$GPGLL,,,,,,V,N*64
$WIMWV,270.0,R,0.2,N,A*24
$HCHDG,268.1,0.0,E,12.6,W*68
$GPRMC,193129,V,,,,,,,300510,12.6,W,N*19
$WIMWV,270.0,R,0.2,N,A*24
$HCHDG,271.2,0.0,E,12.6,W*63
$GPGLL,,,,,,V,N*64
$WIMWV,270.0,R,0.3,N,A*25
$GPRMC,193130,V,,,,,,,300510,12.6,W,N*11
$HCHDG,277.6,0.0,E,12.6,W*61
$GPVTG,,,,,,,,,N*30
$WIMWV,270.0,R,0.3,N,A*25
$GPGLL,,,,,,V,N*64
$HCHDG,283.2,0.0,E,12.6,W*6E
$GPRMC,193130,V,,,,,,,300510,12.6,W,N*11
$WIMWV,270.0,R,0.2,N,A*24
$HCHDG,277.6,0.0,E,12.6,W*61
$GPGLL,,,,,,V,N*64
$WIMWV,270.0,R,0.3,N,A*25
$HCHDG,275.8,0.0,E,12.6,W*6D
$GPRMC,193131,V,,,,,,,300510,12.6,W,N*10
$WIMWV,270.0,R,0.2,N,A*24
$GPVTG,,,,,,,,,N*30
$HCHDG,275.1,0.0,E,12.6,W*64
$GPGLL,,,,,,V,N*64
$WIMWV,270.0,R,0.2,N,A*24
$GPRMC,193131,V,,,,,,,300510,12.6,W,N*10
$HCHDG,271.0,0.0,E,12.6,W*61
$WIMWV,270.0,R,0.3,N,A*25
$GPGLL,,,,,,V,N*64
$HCHDG,273.3,0.0,E,12.6,W*60
$GPRMC,193132,V,,,,,,,300510,12.6,W,N*13
$WIMWV,270.0,R,0.3,N,A*25
$HCHDG,276.1,0.0,E,12.6,W*67
$GPVTG,,,,,,,,,N*30
$GPGLL,,,,,,V,N*64
$WIMWV,270.0,R,0.3,N,A*25
$HCHDG,278.3,0.0,E,12.6,W*6B
$GPRMC,193132,V,,,,,,,300510,12.6,W,N*13
$WIMWV,300.0,R,0.4,N,A*24
$HCHDG,277.2,0.0,E,12.6,W*65
$GPGLL,,,,,,V,N*64
$WIMWV,302.2,R,0.3,N,A*23
$GPRMC,193133,V,,,,,,,300510,12.6,W,N*12
$HCHDG,275.7,0.0,E,12.6,W*62
$GPVTG,,,,,,,,,N*30
$WIMWV,308.5,R,0.2,N,A*2F
$GPGLL,,,,,,V,N*64
$HCHDG,275.8,0.0,E,12.6,W*6D
$GPRMC,193133,V,,,,,,,300510,12.6,W,N*12
$WIMWV,0.0,R,0.1,N,A*22
$HCHDG,273.9,0.0,E,12.6,W*6A
$GPGLL,,,,,,V,N*64
$WIMWV,0.0,R,0.2,N,A*21
$HCHDG,272.8,0.0,E,12.6,W*6A
$GPRMC,193134,V,,,,,,,300510,12.6,W,N*15
$WIMWV,0.0,R,0.2,N,A*21
$GPVTG,,,,,,,,,N*30
$HCHDG,272.7,0.0,E,12.6,W*65
$GPGLL,,,,,,V,N*64
$WIMWV,310.6,R,0.2,N,A*25
$GPRMC,193134,V,,,,,,,300510,12.6,W,N*15
$HCHDG,271.1,0.0,E,12.6,W*60
$WIMWV,302.6,R,0.3,N,A*27
$GPGLL,,,,,,V,N*64
$HCHDG,268.8,0.0,E,12.6,W*61
$GPRMC,193135,V,,,,,,,300510,12.6,W,N*14
$WIMWV,299.0,R,0.3,N,A*22
$HCHDG,266.1,0.0,E,12.6,W*66
$GPVTG,,,,,,,,,N*30
$GPGLL,,,,,,V,N*64
$WIMWV,317.4,R,0.3,N,A*21
$HCHDG,264.4,0.0,E,12.6,W*61
$GPRMC,193135,V,,,,,,,300510,12.6,W,N*14
$WIMWV,311.5,R,0.3,N,A*26
$HCHDG,264.4,0.0,E,12.6,W*61
$GPGLL,,,,,,V,N*64
$WIMWV,319.3,R,0.4,N,A*2F
$GPRMC,193136,V,,,,,,,300510,12.6,W,N*17
$HCHDG,263.9,0.0,E,12.6,W*6B
$GPVTG,,,,,,,,,N*30
$WIMWV,317.0,R,0.4,N,A*22
$GPGLL,,,,,,V,N*64
$HCHDG,263.1,0.0,E,12.6,W*63
$GPRMC,193136,V,,,,,,,300510,12.6,W,N*17
$WIMWV,321.2,R,0.3,N,A*22
$HCHDG,263.3,0.0,E,12.6,W*61
$GPGLL,,,,,,V,N*64
$WIMWV,314.4,R,0.4,N,A*25
$HCHDG,262.5,0.0,E,12.6,W*66
$GPRMC,193137,V,,,,,,,300510,12.6,W,N*16
$WIMWV,308.3,R,0.4,N,A*2F
$GPVTG,,,,,,,,,N*30
$HCHDG,263.0,0.0,E,12.6,W*62
$GPGLL,,,,,,V,N*64
$WIMWV,303.4,R,0.5,N,A*22
$GPRMC,193137,V,,,,,,,300510,12.6,W,N*16
$HCHDG,266.6,0.0,E,12.6,W*61
$WIMWV,296.0,R,0.6,N,A*28
$GPGLL,,,,,,V,N*64
$HCHDG,267.5,0.0,E,12.6,W*63
$GPRMC,193138,V,,,,,,,300510,12.6,W,N*19
$WIMWV,270.0,R,0.5,N,A*23
$HCHDG,269.4,0.0,E,12.6,W*6C
$GPVTG,,,,,,,,,N*30
$GPGLL,,,,,,V,N*64
$WIMWV,270.0,R,0.5,N,A*23
$HCHDG,254.8,0.0,E,12.6,W*6E
$GPRMC,193138,V,,,,,,,300510,12.6,W,N*19
$WIMWV,270.0,R,0.5,N,A*23
$HCHDG,240.7,0.0,E,12.6,W*64
$GPGLL,,,,,,V,N*64
$WIMWV,270.0,R,0.4,N,A*22
$GPRMC,193139,V,,,,,,,300510,12.6,W,N*18
$HCHDG,229.6,0.0,E,12.6,W*6A
$GPVTG,,,,,,,,,N*30
$WIMWV,270.0,R,0.3,N,A*25
$GPGLL,,,,,,V,N*64
$HCHDG,226.2,0.0,E,12.6,W*61
$GPRMC,193139,V,,,,,,,300510,12.6,W,N*18
$WIMWV,270.0,R,0.3,N,A*25
$HCHDG,225.5,0.0,E,12.6,W*65
$GPGLL,,,,,,V,N*64
$WIMWV,270.0,R,0.2,N,A*24
$HCHDG,230.6,0.0,E,12.6,W*62
$GPRMC,193140,V,,,,,,,300510,12.6,W,N*16
$WIMWV,270.0,R,0.3,N,A*25
$GPVTG,,,,,,,,,N*30
$HCHDG,221.6,0.0,E,12.6,W*62
$GPGLL,,,,,,V,N*64
$WIMWV,270.0,R,0.3,N,A*25
$GPRMC,193140,V,,,,,,,300510,12.6,W,N*16
$HCHDG,200.5,0.0,E,12.6,W*62
$WIMWV,270.0,R,0.4,N,A*22
$GPGLL,,,,,,V,N*64
$HCHDG,197.1,0.0,E,12.6,W*6B
$GPRMC,193141,V,,,,,,,300510,12.6,W,N*17
$WIMWV,270.0,R,0.3,N,A*25
$HCHDG,209.9,0.0,E,12.6,W*67
$GPVTG,,,,,,,,,N*30
$GPGLL,,,,,,V,N*64
$WIMWV,270.0,R,0.4,N,A*22
$HCHDG,224.1,0.0,E,12.6,W*60
$GPRMC,193141,V,,,,,,,300510,12.6,W,N*17
$WIMWV,270.0,R,0.3,N,A*25
$HCHDG,232.1,0.0,E,12.6,W*67
$GPGLL,,,,,,V,N*64
$WIMWV,270.0,R,0.4,N,A*22
$GPRMC,193142,V,,,,,,,300510,12.6,W,N*14
$HCHDG,238.7,0.0,E,12.6,W*6B
$GPVTG,,,,,,,,,N*30
$WIMWV,270.0,R,0.3,N,A*25
$GPGLL,,,,,,V,N*64
$HCHDG,240.2,0.0,E,12.6,W*61
$GPRMC,193142,V,,,,,,,300510,12.6,W,N*14
$WIMWV,270.0,R,0.4,N,A*22
$HCHDG,237.3,0.0,E,12.6,W*60
$GPGLL,,,,,,V,N*64
$WIMWV,270.0,R,0.3,N,A*25
$HCHDG,235.2,0.0,E,12.6,W*63
$GPRMC,193143,V,,,,,,,300510,12.6,W,N*15
$WIMWV,270.0,R,0.3,N,A*25
$GPVTG,,,,,,,,,N*30
$HCHDG,234.7,0.0,E,12.6,W*67
$GPGLL,,,,,,V,N*64
$WIMWV,270.0,R,0.3,N,A*25
$GPRMC,193143,V,,,,,,,300510,12.6,W,N*15
$HCHDG,235.6,0.0,E,12.6,W*67
$WIMWV,270.0,R,0.3,N,A*25
$GPGLL,,,,,,V,N*64
$HCHDG,236.4,0.0,E,12.6,W*66
$GPRMC,193144,V,,,,,,,300510,12.6,W,N*12
$WIMWV,270.0,R,0.3,N,A*25
$HCHDG,237.3,0.0,E,12.6,W*60
$GPVTG,,,,,,,,,N*30
$GPGLL,,,,,,V,N*64
$WIMWV,270.0,R,0.4,N,A*22