$GPRMC,033015.000,A,4115.6426,S,17316.9299,E,0.05,227.63,090113,,*19
!!!VER:1.9,UID:MEGA,APX:0,AAX:0,WSX:0,***
$IIMWV,357.0,R,21.80,N,A*37
!!!VER:1.9,UID:MEGA,APX:0,AAX:0,WSX:0,***
$GPZDA,033016.000,09,01,2013,,*59
$GPRMC,033016.000,A,4115.6426,S,17316.9298,E,0.08,239.90,090113,,*15
!!!VER:1.9,UID:MEGA,APX:0,AAX:0,WSX:0,***
$IIMWV,352.0,R,22.22,N,A*39
!!!VER:1.9,UID:MEGA,APX:0,AAX:0,WSX:0,***
$GPRMC,033017.000,A,4115.6426,S,17316.9298,E,0.13,50.67,090113,,*2B
!!!VER:1.9,UID:MEGA,APX:0,AAX:0,WSX:0,***
$IIMWV,343.0,R,19.44,N,A*31
!!!VER:1.9,UID:MEGA,APX:0,AAX:0,WSX:0,***
$GPZDA,033018.000,09,01,2013,,*57
$GPRMC,033018.000,A,4115.6426,S,17316.9298,E,0.15,112.95,090113,,*18
!!!VER:1.9,UID:MEGA,APX:0,AAX:0,WSX:0,***
$IIMWV,334.0,R,18.31,N,A*32
!!!VER:1.9,UID:MEGA,APX:0,AAX:0,WSX:0,***
$GPGGA,033019.000,4115.6426,S,17316.9298,E,2,10,0.8,-3.0,M,18.9,M,0.8,0000*44
$GPGSA,A,3,11,17,01,08,09,07,28,15,04,26,,,1.6,0.8,1.3*30
!!!VER:1.9,UID:MEGA,APX:0,AAX:0,WSX:0,***
$IIMWV,343.0,R,17.34,N,A*38
!!!VER:1.9,UID:MEGA,APX:0,AAX:0,WSX:0,***
$GPZDA,033020.000,09,01,2013,,*5C
$GPRMC,033020.000,A,4115.6426,S,17316.9299,E,0.13,25.62,090113,,*29
!!!VER:1.9,UID:MEGA,APX:0,AAX:0,WSX:0,***
$IIMWV,335.0,R,16.77,N,A*3F
!!!VER:1.9,UID:MEGA,APX:0,AAX:0,WSX:0,***
$GPRMC,033021.000,A,4115.6426,S,17316.9299,E,0.18,44.62,090113,,*24
!!!VER:1.9,UID:MEGA,APX:0,AAX:0,WSX:0,***
$IIMWV,353.0,R,13.51,N,A*3E
!!!VER:1.9,UID:MEGA,APX:0,AAX:0,WSX:0,***
$GPZDA,033022.000,09,01,2013,,*5E
$GPRMC,033022.000,A,4115.6425,S,17316.9299,E,0.07,33.67,090113,,*2F
!!!VER:1.9,UID:MEGA,APX:0,AAX:0,WSX:0,***
$IIMWV,300.0,R,12.69,N,A*32
!!!VER:1.9,UID:MEGA,APX:0,AAX:0,WSX:0,***
$GPRMC,033023.000,A,4115.6426,S,17316.9300,E,0.09,142.27,090113,,*11
!!!VER:1.9,UID:MEGA,APX:0,AAX:0,WSX:0,***
$IIMWV,343.0,R,18.94,N,A*3D
!!!VER:1.9,UID:MEGA,APX:0,AAX:0,WSX:0,***
$GPZDA,033024.000,09,01,2013,,*58
$GPGGA,033024.000,4115.6426,S,17316.9300,E,2,10,0.8,-3.7,M,18.9,M,0.8,0000*4D
$GPGSA,A,3,11,17,01,08,09,07,28,15,04,26,,,1.6,0.8,1.3*30
!!!VER:1.9,UID:MEGA,APX:0,AAX:0,WSX:0,***
!!!VER:1.9,UID:MEGA,APX:0,AAX:0,WSX:0,***
$GPRMC,033025.000,A,4115.6426,S,17316.9300,E,0.05,245.69,090113,,*15
!!!VER:1.9,UID:MEGA,APX:0,AAX:0,WSX:0,***
$IIMWV,348.0,R,16.72,N,A*30
!!!VER:1.9,UID:MEGA,APX:0,AAX:0,WSX:0,***
$GPZDA,033026.000,09,01,2013,,*5A
$GPRMC,033026.000,A,4115.6426,S,17316.9299,E,0.09,225.15,090113,,*16
!!!VER:1.9,UID:MEGA,APX:0,AAX:0,WSX:0,***
$IIMWV,336.0,R,15.25,N,A*38
!!!VER:1.9,UID:MEGA,APX:0,AAX:0,WSX:0,***
$GPRMC,033027.000,A,4115.6426,S,17316.9299,E,0.13,58.32,090113,,*21
!!!VER:1.9,UID:MEGA,APX:0,AAX:0,WSX:0,***
$IIMWV,346.0,R,16.13,N,A*39
!!!VER:1.9,UID:MEGA,APX:0,AAX:0,WSX:0,***
$GPZDA,033028.000,09,01,2013,,*54
$GPRMC,033028.000,A,4115.6426,S,17316.9298,E,0.06,67.33,090113,,*26
!!!VER:1.9,UID:MEGA,APX:0,AAX:0,WSX:0,***
$IIMWV,351.0,R,14.48,N,A*33
!!!VER:1.9,UID:MEGA,APX:0,AAX:0,WSX:0,***
$GPGGA,033029.000,4115.6425,S,17316.9298,E,2,10,0.8,-3.4,M,18.9,M,0.8,0000*40
$GPGSA,A,3,11,17,01,08,09,07,28,15,04,26,,,1.6,0.8,1.3*30
!!!VER:1.9,UID:MEGA,APX:0,AAX:0,WSX:0,***
$IIMWV,355.0,R,13.05,N,A*39
!!!VER:1.9,UID:MEGA,APX:0,AAX:0,WSX:0,***
$GPZDA,033030.000,09,01,2013,,*5D
$GPRMC,033030.000,A,4115.6425,S,17316.9298,E,0.24,26.00,090113,,*29
!!!VER:1.9,UID:MEGA,APX:0,AAX:0,WSX:0,***
$IIMWV,331.0,R,13.92,N,A*35
!!!VER:1.9,UID:MEGA,APX:0,AAX:0,WSX:0,***
$GPRMC,033031.000,A,4115.6424,S,17316.9297,E,0.11,28.17,090113,,*28
!!!VER:1.9,UID:MEGA,APX:0,AAX:0,WSX:0,***
$IIMWV,345.0,R,16.87,N,A*37
!!!VER:1.9,UID:MEGA,APX:0,AAX:0,WSX:0,***
$GPZDA,033032.000,09,01,2013,,*5F
$GPRMC,033032.000,A,4115.6423,S,17316.9297,E,0.10,31.17,090113,,*25
!!!VER:1.9,UID:MEGA,APX:0,AAX:0,WSX:0,***
$IIMWV,354.0,R,15.48,N,A*37
!!!VER:1.9,UID:MEGA,APX:0,AAX:0,WSX:0,***
$GPRMC,033033.000,A,4115.6423,S,17316.9296,E,0.10,116.85,090113,,*1A
!!!VER:1.9,UID:MEGA,APX:0,AAX:0,WSX:0,***
$IIMWV,351.0,R,18.44,N,A*33
!!!VER:1.9,UID:MEGA,APX:0,AAX:0,WSX:0,***
$GPZDA,033034.000,09,01,2013,,*59
$GPGGA,033034.000,4115.6423,S,17316.9296,E,2,10,0.8,-2.6,M,18.9,M,0.8,0000*47
$GPGSA,A,3,11,17,01,08,09,07,28,15,04,26,,,1.6,0.8,1.3*30
!!!VER:1.9,UID:MEGA,APX:0,AAX:0,WSX:0,***
!!!VER:1.9,UID:MEGA,APX:0,AAX:0,WSX:0,***
$GPRMC,033035.000,A,4115.6422,S,17316.9295,E,0.08,21.57,090113,,*2D
!!!VER:1.9,UID:MEGA,APX:0,AAX:0,WSX:0,***
$IIMWV,342.0,R,17.21,N,A*3D
!!!VER:1.9,UID:MEGA,APX:0,AAX:0,WSX:0,***
$GPZDA,033036.000,09,01,2013,,*5B
$GPRMC,033036.000,A,4115.6422,S,17316.9295,E,0.04,85.68,090113,,*20
!!!VER:1.9,UID:MEGA,APX:0,AAX:0,WSX:0,***
$IIMWV,350.0,R,16.97,N,A*32
!!!VER:1.9,UID:MEGA,APX:0,AAX:0,WSX:0,***
$GPRMC,033037.000,A,4115.6422,S,17316.9295,E,0.15,4.73,090113,,*12
!!!VER:1.9,UID:MEGA,APX:0,AAX:0,WSX:0,***
$IIMWV,344.0,R,16.92,N,A*32
!!!VER:1.9,UID:MEGA,APX:0,AAX:0,WSX:0,***
$GPZDA,033038.000,09,01,2013,,*55
$GPRMC,033038.000,A,4115.6422,S,17316.9294,E,0.05,64.74,090113,,*2C
!!!VER:1.9,UID:MEGA,APX:0,AAX:0,WSX:0,***
$IIMWV,341.0,R,18.98,N,A*33
!!!VER:1.9,UID:MEGA,APX:0,AAX:0,WSX:0,***
$GPGGA,033039.000,4115.6422,S,17316.9294,E,2,10,0.8,-2.3,M,18.9,M,2.8,0000*4E
$GPGSA,A,3,11,17,01,08,09,07,28,15,04,26,,,1.6,0.8,1.3*30
!!!VER:1.9,UID:MEGA,APX:0,AAX:0,WSX:0,***
$IIMWV,336.0,R,19.89,N,A*32
!!!VER:1.9,UID:MEGA,APX:0,AAX:0,WSX:0,***
$GPZDA,033040.000,09,01,2013,,*5A
$GPRMC,033040.000,A,4115.6422,S,17316.9294,E,0.10,190.75,090113,,*1C
!!!VER:1.9,UID:MEGA,APX:0,AAX:0,WSX:0,***
$IIMWV,348.0,R,20.16,N,A*37
!!!VER:1.9,UID:MEGA,APX:0,AAX:0,WSX:0,***
$GPRMC,033041.000,A,4115.6422,S,17316.9293,E,0.14,185.40,090113,,*1C
!!!VER:1.9,UID:MEGA,APX:0,AAX:0,WSX:0,***
$IIMWV,338.0,R,19.77,N,A*3D
!!!VER:1.9,UID:MEGA,APX:0,AAX:0,WSX:0,***
$GPZDA,033042.000,09,01,2013,,*58
$GPRMC,033042.000,A,4115.6422,S,17316.9293,E,0.12,69.74,090113,,*2D
!!!VER:1.9,UID:MEGA,APX:0,AAX:0,WSX:0,***
$IIMWV,345.0,R,18.66,N,A*36
!!!VER:1.9,UID:MEGA,APX:0,AAX:0,WSX:0,***
$GPRMC,033043.000,A,4115.6422,S,17316.9294,E,0.24,59.62,090113,,*2A
!!!VER:1.9,UID:MEGA,APX:0,AAX:0,WSX:0,***
$IIMWV,358.0,R,16.61,N,A*33
!!!VER:1.9,UID:MEGA,APX:0,AAX:0,WSX:0,***
$GPZDA,033044.000,09,01,2013,,*5E
$GPGGA,033044.000,4115.6422,S,17316.9295,E,2,10,0.8,-2.2,M,18.9,M,1.8,0000*47
$GPGSA,A,3,11,17,01,08,09,07,28,15,04,26,,,1.6,0.8,1.3*30
!!!VER:1.9,UID:MEGA,APX:0,AAX:0,WSX:0,***
!!!VER:1.9,UID:MEGA,APX:0,AAX:0,WSX:0,***
$GPRMC,033045.000,A,4115.6421,S,17316.9295,E,0.13,49.46,090113,,*2D
!!!VER:1.9,UID:MEGA,APX:0,AAX:0,WSX:0,***
$IIMWV,195.0,R,12.89,N,A*32
!!!VER:1.9,UID:MEGA,APX:0,AAX:0,WSX:0,***
$GPZDA,033046.000,09,01,2013,,*5C
$GPRMC,033046.000,A,4115.6421,S,17316.9296,E,0.07,71.27,090113,,*24
!!!VER:1.9,UID:MEGA,APX:0,AAX:0,WSX:0,***
$IIMWV,359.0,R,15.61,N,A*31
!!!VER:1.9,UID:MEGA,APX:0,AAX:0,WSX:0,***
$GPRMC,033047.000,A,4115.6422,S,17316.9295,E,0.04,195.57,090113,,*1A
!!!VER:1.9,UID:MEGA,APX:0,AAX:0,WSX:0,***
$IIMWV,330.0,R,17.57,N,A*39
!!!VER:1.9,UID:MEGA,APX:0,AAX:0,WSX:0,***
$GPZDA,033048.000,09,01,2013,,*52
$GPRMC,033048.000,A,4115.6422,S,17316.9295,E,0.08,258.82,090113,,*13
!!!VER:1.9,UID:MEGA,APX:0,AAX:0,WSX:0,***
$IIMWV,346.0,R,15.15,N,A*3C
!!!VER:1.9,UID:MEGA,APX:0,AAX:0,WSX:0,***
$GPGGA,033049.000,4115.6422,S,17316.9294,E,2,10,0.8,-2.2,M,18.9,M,0.8,0000*4A
$GPGSA,A,3,11,17,01,08,09,07,28,15,04,26,,,1.6,0.8,1.3*30
!!!VER:1.9,UID:MEGA,APX:0,AAX:0,WSX:0,***
$IIMWV,334.0,R,15.22,N,A*3D
!!!VER:1.9,UID:MEGA,APX:0,AAX:0,WSX:0,***
$GPZDA,033050.000,09,01,2013,,*5B
$GPRMC,033050.000,A,4115.6422,S,17316.9294,E,0.09,190.49,090113,,*1A
!!!VER:1.9,UID:MEGA,APX:0,AAX:0,WSX:0,***
$IIMWV,352.0,R,16.43,N,A*39
!!!VER:1.9,UID:MEGA,APX:0,AAX:0,WSX:0,***
$GPRMC,033051.000,A,4115.6422,S,17316.9294,E,0.04,344.61,090113,,*17
!!!VER:1.9,UID:MEGA,APX:0,AAX:0,WSX:0,***
$IIMWV,350.0,R,15.12,N,A*3C
!!!VER:1.9,UID:MEGA,APX:0,AAX:0,WSX:0,***
$GPZDA,033052.000,09,01,2013,,*59
$GPRMC,033052.000,A,4115.6422,S,17316.9294,E,0.02,17.61,090113,,*27
!!!VER:1.9,UID:MEGA,APX:0,AAX:0,WSX:0,***
$IIMWV,346.0,R,13.83,N,A*35
!!!VER:1.9,UID:MEGA,APX:0,AAX:0,WSX:0,***
$GPRMC,033053.000,A,4115.6422,S,17316.9294,E,0.18,40.89,090113,,*29
!!!VER:1.9,UID:MEGA,APX:0,AAX:0,WSX:0,***
$IIMWV,335.0,R,14.51,N,A*39
!!!VER:1.9,UID:MEGA,APX:0,AAX:0,WSX:0,***
$GPZDA,033054.000,09,01,2013,,*5F
$GPGGA,033054.000,4115.6422,S,17316.9294,E,2,10,0.8,-2.6,M,18.9,M,0.8,0000*42
$GPGSA,A,3,11,17,01,08,07,28,15,04,26,09,,,1.6,0.8,1.3*30
!!!VER:1.9,UID:MEGA,APX:0,AAX:0,WSX:0,***
!!!VER:1.9,UID:MEGA,APX:0,AAX:0,WSX:0,***
$GPRMC,033055.000,A,4115.6422,S,17316.9294,E,0.04,57.73,090113,,*21
!!!VER:1.9,UID:MEGA,APX:0,AAX:0,WSX:0,***
$IIMWV,343.0,R,18.11,N,A*30
!!!VER:1.9,UID:MEGA,APX:0,AAX:0,WSX:0,***
$GPZDA,033056.000,09,01,2013,,*5D
$GPRMC,033056.000,A,4115.6422,S,17316.9294,E,0.09,151.50,090113,,*19
!!!VER:1.9,UID:MEGA,APX:0,AAX:0,WSX:0,***
$IIMWV,347.0,R,19.72,N,A*30
!!!VER:1.9,UID:MEGA,APX:0,AAX:0,WSX:0,***
$GPRMC,033057.000,A,4115.6423,S,17316.9294,E,0.07,18.48,090113,,*22
!!!VER:1.9,UID:MEGA,APX:0,AAX:0,WSX:0,***
$IIMWV,344.0,R,20.45,N,A*3D
!!!VER:1.9,UID:MEGA,APX:0,AAX:0,WSX:0,***
$GPZDA,033058.000,09,01,2013,,*53
$GPRMC,033058.000,A,4115.6423,S,17316.9293,E,0.03,211.71,090113,,*1F
!!!VER:1.9,UID:MEGA,APX:0,AAX:0,WSX:0,***
$IIMWV,346.0,R,19.34,N,A*33
!!!VER:1.9,UID:MEGA,APX:0,AAX:0,WSX:0,***
$GPGGA,033059.000,4115.6423,S,17316.9292,E,2,10,0.8,-2.4,M,18.9,M,0.8,0000*4A
$GPGSA,A,3,11,17,01,08,07,28,15,04,26,09,,,1.6,0.8,1.3*30
!!!VER:1.9,UID:MEGA,APX:0,AAX:0,WSX:0,***
$IIMWV,334.0,R,17.48,N,A*33
!!!VER:1.9,UID:MEGA,APX:0,AAX:0,WSX:0,***
$GPZDA,033100.000,09,01,2013,,*5F
$GPRMC,033100.000,A,4115.6423,S,17316.9292,E,0.08,160.23,090113,,*1B
!!!VER:1.9,UID:MEGA,APX:0,AAX:0,WSX:0,***
$IIMWV,338.0,R,20.20,N,A*35
!!!VER:1.9,UID:MEGA,APX:0,AAX:0,WSX:0,***
$GPRMC,033101.000,A,4115.6423,S,17316.9291,E,0.07,96.41,090113,,*2A
!!!VER:1.9,UID:MEGA,APX:0,AAX:0,WSX:0,***
$IIMWV,351.0,R,17.52,N,A*3B
!!!VER:1.9,UID:MEGA,APX:0,AAX:0,WSX:0,***
$GPZDA,033102.000,09,01,2013,,*5D
$GPRMC,033102.000,A,4115.6423,S,17316.9291,E,0.17,7.41,090113,,*10
!!!VER:1.9,UID:MEGA,APX:0,AAX:0,WSX:0,***
$IIMWV,352.0,R,16.85,N,A*33
!!!VER:1.9,UID:MEGA,APX:0,AAX:0,WSX:0,***
$GPRMC,033103.000,A,4115.6423,S,17316.9291,E,0.15,17.23,090113,,*26
!!!VER:1.9,UID:MEGA,APX:0,AAX:0,WSX:0,***
$IIMWV,337.0,R,17.47,N,A*3F
!!!VER:1.9,UID:MEGA,APX:0,AAX:0,WSX:0,***
$GPZDA,033104.000,09,01,2013,,*5B
$GPGGA,033104.000,4115.6423,S,17316.9291,E,2,10,0.8,-2.1,M,18.9,M,0.8,0000*45
$GPGSA,A,3,11,17,01,08,07,28,15,04,26,09,,,1.6,0.8,1.3*30
!!!VER:1.9,UID:MEGA,APX:0,AAX:0,WSX:0,***
!!!VER:1.9,UID:MEGA,APX:0,AAX:0,WSX:0,***
$GPRMC,033105.000,A,4115.6423,S,17316.9291,E,0.08,170.29,090113,,*16
!!!VER:1.9,UID:MEGA,APX:0,AAX:0,WSX:0,***
$IIMWV,353.0,R,14.39,N,A*37
!!!VER:1.9,UID:MEGA,APX:0,AAX:0,WSX:0,***
$GPZDA,033106.000,09,01,2013,,*59
$GPRMC,033106.000,A,4115.6423,S,17316.9291,E,0.02,50.05,090113,,*22
!!!VER:1.9,UID:MEGA,APX:0,AAX:0,WSX:0,***
$IIMWV,355.0,R,10.83,N,A*34
!!!VER:1.9,UID:MEGA,APX:0,AAX:0,WSX:0,***
$GPRMC,033107.000,A,4115.6423,S,17316.9291,E,0.05,36.22,090113,,*21
!!!VER:1.9,UID:MEGA,APX:0,AAX:0,WSX:0,***
$IIMWV,328.0,R,16.41,N,A*36
!!!VER:1.9,UID:MEGA,APX:0,AAX:0,WSX:0,***
$GPZDA,033108.000,09,01,2013,,*57
$GPRMC,033108.000,A,4115.6423,S,17316.9291,E,0.08,43.10,090113,,*20
!!!VER:1.9,UID:MEGA,APX:0,AAX:0,WSX:0,***
$IIMWV,345.0,R,20.74,N,A*3E
!!!VER:1.9,UID:MEGA,APX:0,AAX:0,WSX:0,***
$GPGGA,033109.000,4115.6423,S,17316.9292,E,2,10,0.8,-2.5,M,18.9,M,2.8,0000*4D
$GPGSA,A,3,11,17,01,08,07,28,15,04,26,09,,,1.6,0.8,1.3*30
!!!VER:1.9,UID:MEGA,APX:0,AAX:0,WSX:0,***
$IIMWV,342.0,R,19.60,N,A*36
!!!VER:1.9,UID:MEGA,APX:0,AAX:0,WSX:0,***
$GPZDA,033110.000,09,01,2013,,*5E
$GPRMC,033110.000,A,4115.6423,S,17316.9292,E,0.14,32.30,090113,,*23
!!!VER:1.9,UID:MEGA,APX:0,AAX:0,WSX:0,***
$IIMWV,346.0,R,16.75,N,A*39
!!!VER:1.9,UID:MEGA,APX:0,AAX:0,WSX:0,***
$GPRMC,033111.000,A,4115.6423,S,17316.9292,E,0.05,110.62,090113,,*14
!!!VER:1.9,UID:MEGA,APX:0,AAX:0,WSX:0,***
$IIMWV,335.0,R,18.25,N,A*36
!!!VER:1.9,UID:MEGA,APX:0,AAX:0,WSX:0,***
$GPZDA,033112.000,09,01,2013,,*5C
$GPRMC,033112.000,A,4115.6423,S,17316.9292,E,0.08,123.19,090113,,*16
!!!VER:1.9,UID:MEGA,APX:0,AAX:0,WSX:0,***
$IIMWV,351.0,R,14.40,N,A*3B
!!!VER:1.9,UID:MEGA,APX:0,AAX:0,WSX:0,***
$GPRMC,033113.000,A,4115.6423,S,17316.9292,E,0.11,64.04,090113,,*21
!!!VER:1.9,UID:MEGA,APX:0,AAX:0,WSX:0,***
$IIMWV,337.0,R,14.29,N,A*34
!!!VER:1.9,UID:MEGA,APX:0,AAX:0,WSX:0,***
$GPZDA,033114.000,09,01,2013,,*5A
$GPGGA,033114.000,4115.6423,S,17316.9292,E,2,10,0.8,-2.8,M,18.9,M,1.8,0000*4F
$GPGSA,A,3,11,17,01,08,07,28,15,04,26,09,,,1.6,0.8,1.3*30
!!!VER:1.9,UID:MEGA,APX:0,AAX:0,WSX:0,***
!!!VER:1.9,UID:MEGA,APX:0,AAX:0,WSX:0,***
$GPRMC,033115.000,A,4115.6423,S,17316.9292,E,0.03,203.93,090113,,*19
!!!VER:1.9,UID:MEGA,APX:0,AAX:0,WSX:0,***
$IIMWV,345.0,R,17.51,N,A*3D
!!!VER:1.9,UID:MEGA,APX:0,AAX:0,WSX:0,***
$GPZDA,033116.000,09,01,2013,,*58
$GPRMC,033116.000,A,4115.6423,S,17316.9292,E,0.09,208.97,090113,,*1F
!!!VER:1.9,UID:MEGA,APX:0,AAX:0,WSX:0,***
$IIMWV,355.0,R,15.08,N,A*32
!!!VER:1.9,UID:MEGA,APX:0,AAX:0,WSX:0,***
$GPRMC,033117.000,A,4115.6424,S,17316.9292,E,0.05,195.06,090113,,*1A
!!!VER:1.9,UID:MEGA,APX:0,AAX:0,WSX:0,***
$IIMWV,341.0,R,15.58,N,A*32
!!!VER:1.9,UID:MEGA,APX:0,AAX:0,WSX:0,***
$GPZDA,033118.000,09,01,2013,,*56
$GPRMC,033118.000,A,4115.6424,S,17316.9291,E,0.09,185.72,090113,,*18
!!!VER:1.9,UID:MEGA,APX:0,AAX:0,WSX:0,***
$IIMWV,6.0,R,12.67,N,A*39
!!!VER:1.9,UID:MEGA,APX:0,AAX:0,WSX:0,***
$GPGGA,033119.000,4115.6424,S,17316.9291,E,2,10,0.8,-2.5,M,18.9,M,0.8,0000*4A
$GPGSA,A,3,11,17,01,08,07,28,15,04,26,09,,,1.6,0.8,1.3*30
!!!VER:1.9,UID:MEGA,APX:0,AAX:0,WSX:0,***
$IIMWV,331.0,R,18.40,N,A*31
!!!VER:1.9,UID:MEGA,APX:0,AAX:0,WSX:0,***
$GPZDA,033120.000,09,01,2013,,*5D
$GPRMC,033120.000,A,4115.6425,S,17316.9291,E,0.09,173.23,090113,,*1F
!!!VER:1.9,UID:MEGA,APX:0,AAX:0,WSX:0,***
$IIMWV,339.0,R,18.97,N,A*33
!!!VER:1.9,UID:MEGA,APX:0,AAX:0,WSX:0,***
$GPRMC,033121.000,A,4115.6425,S,17316.9291,E,0.03,139.99,090113,,*1B
!!!VER:1.9,UID:MEGA,APX:0,AAX:0,WSX:0,***
$IIMWV,344.0,R,18.61,N,A*30
!!!VER:1.9,UID:MEGA,APX:0,AAX:0,WSX:0,***
$GPZDA,033122.000,09,01,2013,,*5F
$GPRMC,033122.000,A,4115.6425,S,17316.9291,E,0.11,78.71,090113,,*29
!!!VER:1.9,UID:MEGA,APX:0,AAX:0,WSX:0,***
$IIMWV,345.0,R,17.57,N,A*3B
!!!VER:1.9,UID:MEGA,APX:0,AAX:0,WSX:0,***
$GPRMC,033123.000,A,4115.6425,S,17316.9291,E,0.11,118.75,090113,,*1B
!!!VER:1.9,UID:MEGA,APX:0,AAX:0,WSX:0,***
$IIMWV,344.0,R,19.84,N,A*3A
!!!VER:1.9,UID:MEGA,APX:0,AAX:0,WSX:0,***
$GPZDA,033124.000,09,01,2013,,*59
$GPGGA,033124.000,4115.6425,S,17316.9291,E,2,10,0.8,-2.4,M,18.9,M,0.8,0000*44
$GPGSA,A,3,11,17,01,08,07,28,15,04,26,09,,,1.6,0.8,1.3*30
!!!VER:1.9,UID:MEGA,APX:0,AAX:0,WSX:0,***
!!!VER:1.9,UID:MEGA,APX:0,AAX:0,WSX:0,***
$GPRMC,033125.000,A,4115.6425,S,17316.9291,E,0.04,344.15,090113,,*14
!!!VER:1.9,UID:MEGA,APX:0,AAX:0,WSX:0,***
$IIMWV,346.0,R,19.77,N,A*34
!!!VER:1.9,UID:MEGA,APX:0,AAX:0,WSX:0,***
$GPZDA,033126.000,09,01,2013,,*5B
$GPRMC,033126.000,A,4115.6425,S,17316.9290,E,0.06,247.65,090113,,*11
!!!VER:1.9,UID:MEGA,APX:0,AAX:0,WSX:0,***
$IIMWV,345.0,R,19.11,N,A*37
!!!VER:1.9,UID:MEGA,APX:0,AAX:0,WSX:0,***
$GPRMC,033127.000,A,4115.6425,S,17316.9290,E,0.09,182.23,090113,,*17
!!!VER:1.9,UID:MEGA,APX:0,AAX:0,WSX:0,***
$IIMWV,351.0,R,19.78,N,A*3D
!!!VER:1.9,UID:MEGA,APX:0,AAX:0,WSX:0,***
$GPZDA,033128.000,09,01,2013,,*55
$GPRMC,033128.000,A,4115.6425,S,17316.9290,E,0.08,348.30,090113,,*1F
!!!VER:1.9,UID:MEGA,APX:0,AAX:0,WSX:0,***
$IIMWV,346.0,R,19.07,N,A*33
!!!VER:1.9,UID:MEGA,APX:0,AAX:0,WSX:0,***
$GPGGA,033129.000,4115.6425,S,17316.9289,E,2,10,0.8,-2.4,M,18.9,M,0.8,0000*40
$GPGSA,A,3,11,17,01,08,07,28,15,04,26,09,,,1.6,0.8,1.3*30
!!!VER:1.9,UID:MEGA,APX:0,AAX:0,WSX:0,***
$IIMWV,338.0,R,19.63,N,A*38
!!!VER:1.9,UID:MEGA,APX:0,AAX:0,WSX:0,***
$GPZDA,033130.000,09,01,2013,,*5C
$GPRMC,033130.000,A,4115.6425,S,17316.9289,E,0.08,122.15,090113,,*17
!!!VER:1.9,UID:MEGA,APX:0,AAX:0,WSX:0,***
$IIMWV,334.0,R,20.08,N,A*33
!!!VER:1.9,UID:MEGA,APX:0,AAX:0,WSX:0,***
$GPRMC,033131.000,A,4115.6426,S,17316.9289,E,0.15,147.70,090113,,*19
!!!VER:1.9,UID:MEGA,APX:0,AAX:0,WSX:0,***
$IIMWV,352.0,R,19.37,N,A*35
!!!VER:1.9,UID:MEGA,APX:0,AAX:0,WSX:0,***
$GPZDA,033132.000,09,01,2013,,*5E
$GPRMC,033132.000,A,4115.6426,S,17316.9290,E,0.04,118.12,090113,,*1C
!!!VER:1.9,UID:MEGA,APX:0,AAX:0,WSX:0,***
$IIMWV,331.0,R,16.60,N,A*3D
!!!VER:1.9,UID:MEGA,APX:0,AAX:0,WSX:0,***
$GPRMC,033133.000,A,4115.6426,S,17316.9289,E,0.09,133.69,090113,,*1D
!!!VER:1.9,UID:MEGA,APX:0,AAX:0,WSX:0,***
$IIMWV,350.0,R,17.44,N,A*3D
!!!VER:1.9,UID:MEGA,APX:0,AAX:0,WSX:0,***
$GPZDA,033134.000,09,01,2013,,*58
$GPGGA,033134.000,4115.6426,S,17316.9289,E,2,10,0.8,-2.4,M,18.9,M,3.8,0000*4C
$GPGSA,A,3,11,17,01,08,07,28,15,04,26,09,,,1.6,0.8,1.3*30
!!!VER:1.9,UID:MEGA,APX:0,AAX:0,WSX:0,***
!!!VER:1.9,UID:MEGA,APX:0,AAX:0,WSX:0,***
$GPRMC,033135.000,A,4115.6426,S,17316.9289,E,0.04,295.20,090113,,*14
!!!VER:1.9,UID:MEGA,APX:0,AAX:0,WSX:0,***
$IIMWV,337.0,R,16.13,N,A*3F
!!!VER:1.9,UID:MEGA,APX:0,AAX:0,WSX:0,***
$GPZDA,033136.000,09,01,2013,,*5A
$GPRMC,033136.000,A,4115.6426,S,17316.9288,E,0.08,271.80,090113,,*1A
!!!VER:1.9,UID:MEGA,APX:0,AAX:0,WSX:0,***
$IIMWV,349.0,R,15.74,N,A*34
!!!VER:1.9,UID:MEGA,APX:0,AAX:0,WSX:0,***
$GPRMC,033137.000,A,4115.6427,S,17316.9290,E,0.05,141.88,090113,,*16
!!!VER:1.9,UID:MEGA,APX:0,AAX:0,WSX:0,***
$IIMWV,346.0,R,13.60,N,A*38
!!!VER:1.9,UID:MEGA,APX:0,AAX:0,WSX:0,***
$GPZDA,033138.000,09,01,2013,,*54
$GPRMC,033138.000,A,4115.6427,S,17316.9290,E,0.09,157.13,090113,,*10
!!!VER:1.9,UID:MEGA,APX:0,AAX:0,WSX:0,***
$IIMWV,333.0,R,15.37,N,A*3E
!!!VER:1.9,UID:MEGA,APX:0,AAX:0,WSX:0,***
$GPGGA,033139.000,4115.6427,S,17316.9290,E,2,10,0.8,-2.9,M,18.9,M,0.8,0000*46
$GPGSA,A,3,11,17,01,08,07,28,15,04,26,09,,,1.6,0.8,1.3*30
!!!VER:1.9,UID:MEGA,APX:0,AAX:0,WSX:0,***
$IIMWV,334.0,R,17.70,N,A*38
!!!VER:1.9,UID:MEGA,APX:0,AAX:0,WSX:0,***
$GPZDA,033140.000,09,01,2013,,*5B
$GPRMC,033140.000,A,4115.6427,S,17316.9290,E,0.03,154.10,090113,,*15
!!!VER:1.9,UID:MEGA,APX:0,AAX:0,WSX:0,***
$IIMWV,347.0,R,18.17,N,A*32
!!!VER:1.9,UID:MEGA,APX:0,AAX:0,WSX:0,***
$GPRMC,033141.000,A,4115.6427,S,17316.9290,E,0.05,93.64,090113,,*2B
!!!VER:1.9,UID:MEGA,APX:0,AAX:0,WSX:0,***
$IIMWV,346.0,R,16.75,N,A*39
!!!VER:1.9,UID:MEGA,APX:0,AAX:0,WSX:0,***
$GPZDA,033142.000,09,01,2013,,*59
$GPRMC,033142.000,A,4115.6427,S,17316.9290,E,0.12,40.06,090113,,*24
!!!VER:1.9,UID:MEGA,APX:0,AAX:0,WSX:0,***
$IIMWV,342.0,R,17.41,N,A*3B
!!!VER:1.9,UID:MEGA,APX:0,AAX:0,WSX:0,***
$GPRMC,033143.000,A,4115.6427,S,17316.9290,E,0.05,31.11,090113,,*23
!!!VER:1.9,UID:MEGA,APX:0,AAX:0,WSX:0,***
$IIMWV,350.0,R,13.05,N,A*3C
!!!VER:1.9,UID:MEGA,APX:0,AAX:0,WSX:0,***
$GPZDA,033144.000,09,01,2013,,*5F
$GPGGA,033144.000,4115.6427,S,17316.9290,E,2,10,0.8,-3.1,M,18.9,M,1.8,0000*44
$GPGSA,A,3,11,17,01,08,07,28,15,04,26,09,,,1.6,0.8,1.3*30
!!!VER:1.9,UID:MEGA,APX:0,AAX:0,WSX:0,***
!!!VER:1.9,UID:MEGA,APX:0,AAX:0,WSX:0,***
$GPRMC,033145.000,A,4115.6427,S,17316.9290,E,0.16,43.57,090113,,*20
!!!VER:1.9,UID:MEGA,APX:0,AAX:0,WSX:0,***
$IIMWV,338.0,R,17.05,N,A*36
!!!VER:1.9,UID:MEGA,APX:0,AAX:0,WSX:0,***
$GPZDA,033146.000,09,01,2013,,*5D
$GPRMC,033146.000,A,4115.6426,S,17316.9290,E,0.11,61.69,090113,,*28
!!!VER:1.9,UID:MEGA,APX:0,AAX:0,WSX:0,***
$IIMWV,185.0,R,9.87,N,A*7
!!!VER:1.9,UID:MEGA,APX:0,AAX:0,WSX:0,***
$GPRMC,033147.000,A,4115.6426,S,17316.9291,E,0.12,52.18,090113,,*2D
!!!VER:1.9,UID:MEGA,APX:0,AAX:0,WSX:0,***
$IIMWV,348.0,R,13.81,N,A*39
!!!VER:1.9,UID:MEGA,APX:0,AAX:0,WSX:0,***
$GPZDA,033148.000,09,01,2013,,*53
$GPRMC,033148.000,A,4115.6426,S,17316.9292,E,0.13,54.16,090113,,*28
!!!VER:1.9,UID:MEGA,APX:0,AAX:0,WSX:0,***
$IIMWV,342.0,R,15.29,N,A*37
!!!VER:1.9,UID:MEGA,APX:0,AAX:0,WSX:0,***
$GPGGA,033149.000,4115.6426,S,17316.9292,E,2,10,0.8,-4.1,M,18.9,M,0.8,0000*4C
$GPGSA,A,3,11,17,01,08,07,28,15,04,26,09,,,1.6,0.8,1.3*30
!!!VER:1.9,UID:MEGA,APX:0,AAX:0,WSX:0,***
$IIMWV,340.0,R,14.68,N,A*31
!!!VER:1.9,UID:MEGA,APX:0,AAX:0,WSX:0,***
$GPZDA,033150.000,09,01,2013,,*5A
$GPRMC,033150.000,A,4115.6426,S,17316.9292,E,0.07,156.56,090113,,*13
!!!VER:1.9,UID:MEGA,APX:0,AAX:0,WSX:0,***
$IIMWV,341.0,R,16.35,N,A*3A
!!!VER:1.9,UID:MEGA,APX:0,AAX:0,WSX:0,***
$GPRMC,033151.000,A,4115.6426,S,17316.9292,E,0.04,246.89,090113,,*11
!!!VER:1.9,UID:MEGA,APX:0,AAX:0,WSX:0,***
$IIMWV,333.0,R,20.49,N,A*31
!!!VER:1.9,UID:MEGA,APX:0,AAX:0,WSX:0,***
$GPZDA,033152.000,09,01,2013,,*58
$GPRMC,033152.000,A,4115.6426,S,17316.9291,E,0.03,273.82,090113,,*1B
!!!VER:1.9,UID:MEGA,APX:0,AAX:0,WSX:0,***
$IIMWV,348.0,R,21.57,N,A*33
!!!VER:1.9,UID:MEGA,APX:0,AAX:0,WSX:0,***
$GPRMC,033153.000,A,4115.6426,S,17316.9291,E,0.01,109.77,090113,,*1C
!!!VER:1.9,UID:MEGA,APX:0,AAX:0,WSX:0,***
$IIMWV,346.0,R,19.42,N,A*32
!!!VER:1.9,UID:MEGA,APX:0,AAX:0,WSX:0,***
$GPZDA,033154.000,09,01,2013,,*5E
$GPGGA,033154.000,4115.6426,S,17316.9291,E,2,10,0.8,-4.1,M,18.9,M,0.8,0000*43
$GPGSA,A,3,11,17,01,08,07,28,15,04,26,09,,,1.6,0.8,1.3*30
!!!VER:1.9,UID:MEGA,APX:0,AAX:0,WSX:0,***
!!!VER:1.9,UID:MEGA,APX:0,AAX:0,WSX:0,***
$GPRMC,033155.000,A,4115.6427,S,17316.9291,E,0.10,158.83,090113,,*14
!!!VER:1.9,UID:MEGA,APX:0,AAX:0,WSX:0,***
$IIMWV,338.0,R,18.78,N,A*33
!!!VER:1.9,UID:MEGA,APX:0,AAX:0,WSX:0,***
$GPZDA,033156.000,09,01,2013,,*5C
$GPRMC,033156.000,A,4115.6427,S,17316.9291,E,0.06,60.55,090113,,*21
!!!VER:1.9,UID:MEGA,APX:0,AAX:0,WSX:0,***
$IIMWV,342.0,R,13.88,N,A*3A
!!!VER:1.9,UID:MEGA,APX:0,AAX:0,WSX:0,***
$GPRMC,033157.000,A,4115.6427,S,17316.9291,E,0.03,37.10,090113,,*26
!!!VER:1.9,UID:MEGA,APX:0,AAX:0,WSX:0,***
$IIMWV,343.0,R,21.06,N,A*3C
!!!VER:1.9,UID:MEGA,APX:0,AAX:0,WSX:0,***
$GPZDA,033158.000,09,01,2013,,*52
$GPRMC,033158.000,A,4115.6427,S,17316.9291,E,0.09,139.41,090113,,*18
!!!VER:1.9,UID:MEGA,APX:0,AAX:0,WSX:0,***
$IIMWV,351.0,R,22.13,N,A*38
!!!VER:1.9,UID:MEGA,APX:0,AAX:0,WSX:0,***
$GPGGA,033159.000,4115.6427,S,17316.9291,E,2,10,0.8,-3.8,M,18.9,M,0.8,0000*41
$GPGSA,A,3,11,17,01,08,07,28,15,04,26,09,,,1.6,0.8,1.3*30
!!!VER:1.9,UID:MEGA,APX:0,AAX:0,WSX:0,***
$IIMWV,347.0,R,20.99,N,A*3F
!!!VER:1.9,UID:MEGA,APX:0,AAX:0,WSX:0,***
$GPZDA,033200.000,09,01,2013,,*5C
$GPRMC,033200.000,A,4115.6427,S,17316.9291,E,0.07,247.03,090113,,*14
!!!VER:1.9,UID:MEGA,APX:0,AAX:0,WSX:0,***
$IIMWV,351.0,R,20.10,N,A*39
!!!VER:1.9,UID:MEGA,APX:0,AAX:0,WSX:0,***
$GPRMC,033201.000,A,4115.6427,S,17316.9290,E,0.06,243.70,090113,,*15
!!!VER:1.9,UID:MEGA,APX:0,AAX:0,WSX:0,***
$IIMWV,350.0,R,21.24,N,A*3E
!!!VER:1.9,UID:MEGA,APX:0,AAX:0,WSX:0,***
$GPZDA,033202.000,09,01,2013,,*5E
$GPRMC,033202.000,A,4115.6427,S,17316.9290,E,0.07,281.95,090113,,*12
!!!VER:1.9,UID:MEGA,APX:0,AAX:0,WSX:0,***
$IIMWV,339.0,R,20.70,N,A*31
!!!VER:1.9,UID:MEGA,APX:0,AAX:0,WSX:0,***
$GPRMC,033203.000,A,4115.6427,S,17316.9289,E,0.05,352.35,090113,,*1C
!!!VER:1.9,UID:MEGA,APX:0,AAX:0,WSX:0,***
$IIMWV,342.0,R,21.86,N,A*35
!!!VER:1.9,UID:MEGA,APX:0,AAX:0,WSX:0,***
$GPZDA,033204.000,09,01,2013,,*58
$GPGGA,033204.000,4115.6427,S,17316.9289,E,2,10,0.8,-3.2,M,18.9,M,3.8,0000*4A
$GPGSA,A,3,11,17,01,08,07,28,15,04,26,09,,,1.6,0.8,1.3*30
!!!VER:1.9,UID:MEGA,APX:0,AAX:0,WSX:0,***
!!!VER:1.9,UID:MEGA,APX:0,AAX:0,WSX:0,***
$GPRMC,033205.000,A,4115.6427,S,17316.9290,E,0.13,119.04,090113,,*1A
!!!VER:1.9,UID:MEGA,APX:0,AAX:0,WSX:0,***
$IIMWV,353.0,R,20.29,N,A*31
!!!VER:1.9,UID:MEGA,APX:0,AAX:0,WSX:0,***
$GPZDA,033206.000,09,01,2013,,*5A
$GPRMC,033206.000,A,4115.6427,S,17316.9290,E,0.07,83.84,090113,,*26
!!!VER:1.9,UID:MEGA,APX:0,AAX:0,WSX:0,***
$IIMWV,355.0,R,19.14,N,A*33
!!!VER:1.9,UID:MEGA,APX:0,AAX:0,WSX:0,***
$GPRMC,033207.000,A,4115.6427,S,17316.9290,E,0.07,36.67,090113,,*24
!!!VER:1.9,UID:MEGA,APX:0,AAX:0,WSX:0,***
$IIMWV,358.0,R,20.05,N,A*34
!!!VER:1.9,UID:MEGA,APX:0,AAX:0,WSX:0,***
$GPZDA,033208.000,09,01,2013,,*54
$GPRMC,033208.000,A,4115.6426,S,17316.9290,E,0.04,33.14,090113,,*28
!!!VER:1.9,UID:MEGA,APX:0,AAX:0,WSX:0,***
$IIMWV,351.0,R,19.65,N,A*31
!!!VER:1.9,UID:MEGA,APX:0,AAX:0,WSX:0,***
$GPGGA,033209.000,4115.6427,S,17316.9289,E,2,10,0.8,-2.8,M,18.9,M,0.8,0000*4F
$GPGSA,A,3,11,17,01,08,07,28,15,04,26,09,,,1.6,0.8,1.3*30
!!!VER:1.9,UID:MEGA,APX:0,AAX:0,WSX:0,***
$IIMWV,347.0,R,16.60,N,A*3C
!!!VER:1.9,UID:MEGA,APX:0,AAX:0,WSX:0,***
$GPZDA,033210.000,09,01,2013,,*5D
$GPRMC,033210.000,A,4115.6427,S,17316.9289,E,0.06,158.42,090113,,*15
!!!VER:1.9,UID:MEGA,APX:0,AAX:0,WSX:0,***
$IIMWV,330.0,R,17.30,N,A*38
!!!VER:1.9,UID:MEGA,APX:0,AAX:0,WSX:0,***
$GPRMC,033211.000,A,4115.6427,S,17316.9289,E,0.02,53.54,090113,,*2D
!!!VER:1.9,UID:MEGA,APX:0,AAX:0,WSX:0,***
$IIMWV,329.0,R,15.73,N,A*35
!!!VER:1.9,UID:MEGA,APX:0,AAX:0,WSX:0,***
$GPZDA,033212.000,09,01,2013,,*5F
$GPRMC,033212.000,A,4115.6426,S,17316.9289,E,0.20,22.26,090113,,*2C
!!!VER:1.9,UID:MEGA,APX:0,AAX:0,WSX:0,***
$IIMWV,350.0,R,14.04,N,A*3A
!!!VER:1.9,UID:MEGA,APX:0,AAX:0,WSX:0,***
$GPRMC,033213.000,A,4115.6426,S,17316.9289,E,0.12,28.90,090113,,*2B
!!!VER:1.9,UID:MEGA,APX:0,AAX:0,WSX:0,***
$IIMWV,337.0,R,15.07,N,A*39
!!!VER:1.9,UID:MEGA,APX:0,AAX:0,WSX:0,***
$GPZDA,033214.000,09,01,2013,,*59
$GPGGA,033214.000,4115.6426,S,17316.9289,E,2,10,0.8,-2.9,M,18.9,M,0.8,0000*43
$GPGSA,A,3,11,17,01,08,07,28,15,04,26,09,,,1.6,0.8,1.3*30
!!!VER:1.9,UID:MEGA,APX:0,AAX:0,WSX:0,***
!!!VER:1.9,UID:MEGA,APX:0,AAX:0,WSX:0,***
$GPRMC,033215.000,A,4115.6426,S,17316.9290,E,0.04,69.34,090113,,*29
!!!VER:1.9,UID:MEGA,APX:0,AAX:0,WSX:0,***
$IIMWV,338.0,R,19.22,N,A*3D
!!!VER:1.9,UID:MEGA,APX:0,AAX:0,WSX:0,***
$GPZDA,033216.000,09,01,2013,,*5B
$GPRMC,033216.000,A,4115.6425,S,17316.9290,E,0.02,63.48,090113,,*2E
!!!VER:1.9,UID:MEGA,APX:0,AAX:0,WSX:0,***
$IIMWV,343.0,R,19.81,N,A*38
!!!VER:1.9,UID:MEGA,APX:0,AAX:0,WSX:0,***
$GPRMC,033217.000,A,4115.6425,S,17316.9290,E,0.03,135.13,090113,,*12
!!!VER:1.9,UID:MEGA,APX:0,AAX:0,WSX:0,***
$IIMWV,343.0,R,18.93,N,A*3A
!!!VER:1.9,UID:MEGA,APX:0,AAX:0,WSX:0,***
$GPZDA,033218.000,09,01,2013,,*55
$GPRMC,033218.000,A,4115.6425,S,17316.9290,E,0.05,174.39,090113,,*16
!!!VER:1.9,UID:MEGA,APX:0,AAX:0,WSX:0,***
$IIMWV,339.0,R,16.25,N,A*34
!!!VER:1.9,UID:MEGA,APX:0,AAX:0,WSX:0,***
$GPGGA,033219.000,4115.6425,S,17316.9290,E,2,10,0.8,-2.7,M,18.9,M,0.8,0000*4B
$GPGSA,A,3,11,17,01,08,07,28,15,04,26,09,,,1.6,0.8,1.3*30
!!!VER:1.9,UID:MEGA,APX:0,AAX:0,WSX:0,***
$IIMWV,352.0,R,14.28,N,A*36
!!!VER:1.9,UID:MEGA,APX:0,AAX:0,WSX:0,***
$GPZDA,033220.000,09,01,2013,,*5E
$GPRMC,033220.000,A,4115.6425,S,17316.9291,E,0.02,132.00,090113,,*13
!!!VER:1.9,UID:MEGA,APX:0,AAX:0,WSX:0,***
$IIMWV,1.0,R,10.27,N,A*38
!!!VER:1.9,UID:MEGA,APX:0,AAX:0,WSX:0,***
$GPRMC,033221.000,A,4115.6425,S,17316.9291,E,0.03,54.97,090113,,*2C
!!!VER:1.9,UID:MEGA,APX:0,AAX:0,WSX:0,***
$IIMWV,342.0,R,12.77,N,A*3B
!!!VER:1.9,UID:MEGA,APX:0,AAX:0,WSX:0,***
$GPZDA,033222.000,09,01,2013,,*5C
$GPRMC,033222.000,A,4115.6425,S,17316.9291,E,0.04,160.42,090113,,*16
!!!VER:1.9,UID:MEGA,APX:0,AAX:0,WSX:0,***
$IIMWV,334.0,R,17.54,N,A*3E
!!!VER:1.9,UID:MEGA,APX:0,AAX:0,WSX:0,***
$GPRMC,033223.000,A,4115.6425,S,17316.9291,E,0.02,126.53,090113,,*13
!!!VER:1.9,UID:MEGA,APX:0,AAX:0,WSX:0,***
$IIMWV,345.0,R,18.32,N,A*37
!!!VER:1.9,UID:MEGA,APX:0,AAX:0,WSX:0,***
$GPZDA,033224.000,09,01,2013,,*5A
$GPGGA,033224.000,4115.6425,S,17316.9291,E,2,10,0.8,-2.7,M,18.9,M,0.8,0000*44
$GPGSA,A,3,11,17,01,08,07,28,15,04,26,09,,,1.6,0.8,1.3*30
!!!VER:1.9,UID:MEGA,APX:0,AAX:0,WSX:0,***
!!!VER:1.9,UID:MEGA,APX:0,AAX:0,WSX:0,***
$GPRMC,033225.000,A,4115.6425,S,17316.9291,E,0.05,30.20,090113,,*20
!!!VER:1.9,UID:MEGA,APX:0,AAX:0,WSX:0,***
$IIMWV,342.0,R,17.98,N,A*3F
!!!VER:1.9,UID:MEGA,APX:0,AAX:0,WSX:0,***
$GPZDA,033226.000,09,01,2013,,*58
$GPRMC,033226.000,A,4115.6425,S,17316.9291,E,0.01,108.37,090113,,*1B
!!!VER:1.9,UID:MEGA,APX:0,AAX:0,WSX:0,***
$IIMWV,353.0,R,17.58,N,A*33
!!!VER:1.9,UID:MEGA,APX:0,AAX:0,WSX:0,***
$GPRMC,033227.000,A,4115.6425,S,17316.9291,E,0.04,183.71,090113,,*1E
!!!VER:1.9,UID:MEGA,APX:0,AAX:0,WSX:0,***
$IIMWV,345.0,R,18.34,N,A*31
!!!VER:1.9,UID:MEGA,APX:0,AAX:0,WSX:0,***
$GPZDA,033228.000,09,01,2013,,*56
$GPRMC,033228.000,A,4115.6425,S,17316.9291,E,0.06,268.28,090113,,*19
!!!VER:1.9,UID:MEGA,APX:0,AAX:0,WSX:0,***
$IIMWV,351.0,R,18.17,N,A*35
!!!VER:1.9,UID:MEGA,APX:0,AAX:0,WSX:0,***
$GPGGA,033229.000,4115.6425,S,17316.9290,E,2,10,0.8,-2.3,M,18.9,M,0.8,0000*4C
$GPGSA,A,3,11,17,01,08,07,28,15,04,26,09,,,1.6,0.8,1.3*30
!!!VER:1.9,UID:MEGA,APX:0,AAX:0,WSX:0,***
$IIMWV,350.0,R,16.56,N,A*3F
!!!VER:1.9,UID:MEGA,APX:0,AAX:0,WSX:0,***
$GPZDA,033230.000,09,01,2013,,*5F
$GPRMC,033230.000,A,4115.6425,S,17316.9290,E,0.03,54.49,090113,,*2E
!!!VER:1.9,UID:MEGA,APX:0,AAX:0,WSX:0,***
$IIMWV,346.0,R,16.56,N,A*38
!!!VER:1.9,UID:MEGA,APX:0,AAX:0,WSX:0,***
$GPRMC,033231.000,A,4115.6425,S,17316.9290,E,0.11,59.50,090113,,*29
!!!VER:1.9,UID:MEGA,APX:0,AAX:0,WSX:0,***
$IIMWV,173.0,R,10.88,N,A*39
!!!VER:1.9,UID:MEGA,APX:0,AAX:0,WSX:0,***
$GPZDA,033232.000,09,01,2013,,*5D
$GPRMC,033232.000,A,4115.6425,S,17316.9290,E,0.02,157.14,090113,,*17
!!!VER:1.9,UID:MEGA,APX:0,AAX:0,WSX:0,***
$IIMWV,346.0,R,16.67,N,A*3A
!!!VER:1.9,UID:MEGA,APX:0,AAX:0,WSX:0,***
$GPRMC,033233.000,A,4115.6426,S,17316.9290,E,0.14,157.21,090113,,*14
!!!VER:1.9,UID:MEGA,APX:0,AAX:0,WSX:0,***
$IIMWV,349.0,R,16.64,N,A*36
!!!VER:1.9,UID:MEGA,APX:0,AAX:0,WSX:0,***
$GPZDA,033234.000,09,01,2013,,*5B
$GPGGA,033234.000,4115.6426,S,17316.9290,E,2,10,0.8,-2.0,M,18.9,M,1.8,0000*41
$GPGSA,A,3,11,17,01,08,07,28,15,04,26,09,,,1.6,0.8,1.3*30
!!!VER:1.9,UID:MEGA,APX:0,AAX:0,WSX:0,***
!!!VER:1.9,UID:MEGA,APX:0,AAX:0,WSX:0,***
$GPRMC,033235.000,A,4115.6427,S,17316.9290,E,0.03,26.88,090113,,*21
!!!VER:1.9,UID:MEGA,APX:0,AAX:0,WSX:0,***
$IIMWV,338.0,R,13.32,N,A*36
!!!VER:1.9,UID:MEGA,APX:0,AAX:0,WSX:0,***
$GPZDA,033236.000,09,01,2013,,*59
$GPRMC,033236.000,A,4115.6426,S,17316.9290,E,0.18,352.50,090113,,*1C
!!!VER:1.9,UID:MEGA,APX:0,AAX:0,WSX:0,***
$IIMWV,351.0,R,17.28,N,A*36
!!!VER:1.9,UID:MEGA,APX:0,AAX:0,WSX:0,***
$GPRMC,033237.000,A,4115.6426,S,17316.9290,E,0.04,339.04,090113,,*1C
!!!VER:1.9,UID:MEGA,APX:0,AAX:0,WSX:0,***
$IIMWV,348.0,R,15.52,N,A*31
!!!VER:1.9,UID:MEGA,APX:0,AAX:0,WSX:0,***
$GPZDA,033238.000,09,01,2013,,*57
$GPRMC,033238.000,A,4115.6426,S,17316.9290,E,0.07,190.80,090113,,*1D
!!!VER:1.9,UID:MEGA,APX:0,AAX:0,WSX:0,***
$IIMWV,349.0,R,16.28,N,A*3E
!!!VER:1.9,UID:MEGA,APX:0,AAX:0,WSX:0,***
$GPGGA,033239.000,4115.6427,S,17316.9289,E,2,10,0.8,-1.6,M,18.9,M,2.8,0000*43
$GPGSA,A,3,11,17,01,08,07,28,15,04,26,09,,,1.6,0.8,1.3*30
!!!VER:1.9,UID:MEGA,APX:0,AAX:0,WSX:0,***
$IIMWV,353.0,R,16.84,N,A*33
!!!VER:1.9,UID:MEGA,APX:0,AAX:0,WSX:0,***
$GPZDA,033240.000,09,01,2013,,*58
$GPRMC,033240.000,A,4115.6427,S,17316.9289,E,0.07,135.11,090113,,*1C
!!!VER:1.9,UID:MEGA,APX:0,AAX:0,WSX:0,***
$IIMWV,342.0,R,17.68,N,A*30
!!!VER:1.9,UID:MEGA,APX:0,AAX:0,WSX:0,***
$GPRMC,033241.000,A,4115.6427,S,17316.9290,E,0.13,41.12,090113,,*21
!!!VER:1.9,UID:MEGA,APX:0,AAX:0,WSX:0,***
$IIMWV,345.0,R,16.55,N,A*38
!!!VER:1.9,UID:MEGA,APX:0,AAX:0,WSX:0,***
$GPZDA,033242.000,09,01,2013,,*5A
$GPRMC,033242.000,A,4115.6427,S,17316.9290,E,0.06,351.06,090113,,*11
!!!VER:1.9,UID:MEGA,APX:0,AAX:0,WSX:0,***
$IIMWV,354.0,R,13.44,N,A*3D
!!!VER:1.9,UID:MEGA,APX:0,AAX:0,WSX:0,***
$GPRMC,033243.000,A,4115.6427,S,17316.9290,E,0.03,140.39,090113,,*1B
!!!VER:1.9,UID:MEGA,APX:0,AAX:0,WSX:0,***
$IIMWV,7.0,R,11.86,N,A*34
!!!VER:1.9,UID:MEGA,APX:0,AAX:0,WSX:0,***
$GPZDA,033244.000,09,01,2013,,*5C
$GPGGA,033244.000,4115.6427,S,17316.9290,E,2,10,0.8,-1.4,M,18.9,M,1.8,0000*40
$GPGSA,A,3,11,17,01,08,07,28,15,04,26,09,,,1.6,0.8,1.3*30
!!!VER:1.9,UID:MEGA,APX:0,AAX:0,WSX:0,***
!!!VER:1.9,UID:MEGA,APX:0,AAX:0,WSX:0,***
$GPRMC,033245.000,A,4115.6427,S,17316.9290,E,0.10,178.64,090113,,*1C
!!!VER:1.9,UID:MEGA,APX:0,AAX:0,WSX:0,***
$IIMWV,337.0,R,15.66,N,A*3E
!!!VER:1.9,UID:MEGA,APX:0,AAX:0,WSX:0,***
$GPZDA,033246.000,09,01,2013,,*5E
$GPRMC,033246.000,A,4115.6427,S,17316.9290,E,0.08,194.77,090113,,*16
!!!VER:1.9,UID:MEGA,APX:0,AAX:0,WSX:0,***
$IIMWV,340.0,R,16.16,N,A*3A
!!!VER:1.9,UID:MEGA,APX:0,AAX:0,WSX:0,***
$GPRMC,033247.000,A,4115.6428,S,17316.9291,E,0.03,249.17,090113,,*17
!!!VER:1.9,UID:MEGA,APX:0,AAX:0,WSX:0,***
$IIMWV,335.0,R,15.96,N,A*33
!!!VER:1.9,UID:MEGA,APX:0,AAX:0,WSX:0,***
$GPZDA,033248.000,09,01,2013,,*50
$GPRMC,033248.000,A,4115.6427,S,17316.9291,E,0.11,55.75,090113,,*2F
!!!VER:1.9,UID:MEGA,APX:0,AAX:0,WSX:0,***
$IIMWV,354.0,R,13.33,N,A*3D
!!!VER:1.9,UID:MEGA,APX:0,AAX:0,WSX:0,***
$GPGGA,033249.000,4115.6427,S,17316.9292,E,2,10,0.8,-2.3,M,18.9,M,0.8,0000*4A
$GPGSA,A,3,11,17,01,08,07,28,15,04,26,09,,,1.6,0.8,1.3*30
!!!VER:1.9,UID:MEGA,APX:0,AAX:0,WSX:0,***
$IIMWV,336.0,R,13.40,N,A*3D
!!!VER:1.9,UID:MEGA,APX:0,AAX:0,WSX:0,***
$GPZDA,033250.000,09,01,2013,,*59
$GPRMC,033250.000,A,4115.6427,S,17316.9293,E,0.08,58.54,090113,,*22
!!!VER:1.9,UID:MEGA,APX:0,AAX:0,WSX:0,***
$IIMWV,338.0,R,15.56,N,A*32
!!!VER:1.9,UID:MEGA,APX:0,AAX:0,WSX:0,***
